stop_id,stop_name,stop_lat,stop_lon,zone_id,stop_url,location_type,parent_station
"de:07334:1714:1:1","Wörth (Rhein) Alte Bahnmeisterei","49.048742345982","8.26622538039577","","","","Parent1714"
"de:07334:1714:1:2","Wörth (Rhein) Alte Bahnmeisterei","49.0484420719247","8.26673742010779","","","","Parent1714"
"de:07334:1721:1:1","Maximiliansau Eisenbahnstraße","49.0373071007148","8.29789997731824","","","","Parent1721"
"de:07334:1721:2:2","Maximiliansau Eisenbahnstraße","49.0371363175998","8.29896897250649","","","","Parent1721"
"de:07334:1723:1:1","Maximiliansau West","49.038861789003","8.29202499535928","","","","Parent1723"
"de:07334:1723:2:2","Maximiliansau West","49.0389913441668","8.29171956816264","","","","Parent1723"
"de:07334:1731:2:3","Wörth (Rhein)","49.0456394266101","8.27316037439014","","","","Parent1731"
"de:07334:1731:3:5","Wörth (Rhein)","49.0454568959111","8.27318732384867","","","","Parent1731"
"de:07334:1734:1:1","Wörth (Rhein) Bienwaldhalle","49.0499434240771","8.2603683647425","","","","Parent1734"
"de:07334:1734:2:2","Wörth (Rhein) Bienwaldhalle","49.0496490448752","8.26131159579096","","","","Parent1734"
"de:07334:1735:1:1","Wörth (Rhein) Bürgerpark","49.0508795383549","8.254125073517","","","","Parent1735"
"de:07334:1735:2:2","Wörth (Rhein) Bürgerpark","49.0508147762994","8.25505932141261","","","","Parent1735"
"de:07334:1736:1:1","Wörth (Rhein) Rathaus","49.0523454932249","8.24980417699978","","","","Parent1736"
"de:07334:1738:1:1","Wörth (Rhein) Badepark","49.058485549304","8.24411784125052","","","","Parent1738"
"de:07334:1739:1:1","Wörth (Rhein) Badallee","49.0559778136116","8.24992095798673","","","","Parent1739"
"de:07334:1741:1:1","Wörth (Rhein) Zügelstraße","49.0531520443376","8.2621470290053","","","","Parent1741"
"de:07334:1741:2:2","Wörth (Rhein) Zügelstraße","49.0524867877959","8.26190448387856","","","","Parent1741"
"de:07334:1743:1:1","Rheinzabern Alte Römerstraße","49.1099074151788","8.27307054286172","","","","Parent1743"
"de:07334:1743:2:2","Rheinzabern Alte Römerstraße","49.1090547407724","8.27297172818045","","","","Parent1743"
"de:07334:1744:1:1","Rheinzabern Rappengasse","49.1148702773873","8.27334902059983","","","","Parent1744"
"de:07334:1744:2:2","Rheinzabern Rappengasse","49.1140706080271","8.27316935754298","","","","Parent1744"
"de:07334:1745:1:1","Rülzheim Freizeitzentrum","49.1526869641675","8.27955637921396","","","","Parent1745"
"de:07334:1745:2:2","Rülzheim Freizeitzentrum","49.1503720062059","8.27911620472468","","","","Parent1745"
"de:07334:1746:1:1","Bellheim Am Mühlbuckel","49.1921479851427","8.29654352123903","","","","Parent1746"
"de:07334:1746:2:2","Bellheim Am Mühlbuckel","49.1930520660711","8.29906778718776","","","","Parent1746"
"de:07334:1747:1:2","Germersheim Süd/Nolte","49.208424782741","8.3742927090904","","","","Parent1747"
"de:07334:1747:2:1","Germersheim Süd/Nolte","49.2082252439139","8.37301710138677","","","","Parent1747"
"de:07334:1748:2:2","Germersheim Mitte/Rhein","49.2209412997963","8.37893699910994","","","","Parent1748"
"de:07334:1748:3:1","Germersheim Mitte/Rhein","49.2188231622374","8.3797544660186","","","","Parent1748"
"de:07334:32451:1:1","Rülzheim Bf.","49.1610645626028","8.29097396647671","","","","Parent32451"
"de:07334:32451:4:2","Rülzheim Bf.","49.1605241151402","8.28956361148045","","","","Parent32451"
"de:07334:32637:1:3","Germersheim","49.2257287776083","8.36495023013425","","","","Parent32637"
"de:07334:32660:1:1","Bellheim Bf.","49.1879619925196","8.2944414634739","","","","Parent32660"
"de:07334:32660:4:2","Bellheim Bf.","49.189065766892","8.29463010968359","","","","Parent32660"
"de:07334:35002:1:1","Sondernheim","49.1955352682767","8.3603688221846","","","","Parent35002"
"de:07334:35002:4:2","Sondernheim","49.1948073448478","8.3602610243505","","","","Parent35002"
"de:07334:35003:1:1","Rheinzabern Bf.","49.1203265007014","8.27442699894093","","","","Parent35003"
"de:07334:35003:4:2","Rheinzabern Bf.","49.1191271237689","8.2740407233687","","","","Parent35003"
"de:07334:35004:1:1","Jockgrim Bf.","49.0931864431589","8.27235189063432","","","","Parent35004"
"de:07334:35004:4:2","Jockgrim Bf.","49.09052750717","8.27210934550758","","","","Parent35004"
"de:08115:4510:1:2","Bondorf (b. Herrenberg)","48.5234184909826","8.82782514664695","","","","Parent39043"
"de:08115:4510:1:3","Bondorf (b. Herrenberg)","48.5234363399797","8.82769039935431","","","","Parent39043"
"de:08115:4510:2:1","Bondorf (b. Herrenberg)","48.5234779876151","8.82789701186969","","","","Parent39043"
"de:08115:4512:2:1","Herrenberg","48.593849211072","8.86262588075859","","","","Parent81024"
"de:08115:4512:4:101","Herrenberg","48.5934986679108","8.86203299267098","","","","Parent81024"
"de:08115:5776:1:1","Gäufelden","48.5596092747317","8.84992370263937","","","","Parent39044"
"de:08115:5776:1:2","Gäufelden","48.5599303260852","8.85038184343433","","","","Parent39044"
"de:08121:1114:3:1","Heilbronn Hbf/Willy-Brandt-Platz","49.1425861382514","9.20827065267737","","","","Parent35085"
"de:08121:1114:3:2","Heilbronn Hbf/Willy-Brandt-Platz","49.1426860401539","9.20890845652918","","","","Parent35085"
"de:08121:1123:91:1","Heilbronn Harmonie","49.1416223683783","9.22305692225603","","","","Parent1588"
"de:08121:1123:91:2","Heilbronn Harmonie","49.1415165876166","9.22373964187206","","","","Parent1588"
"de:08121:137:2:2","Heilbronn Neckar-Turm","49.1427154230281","9.21347189817314","","","","Parent1586"
"de:08121:137:3:1","Heilbronn Neckar-Turm","49.1425978914268","9.21406478626074","","","","Parent1586"
"de:08121:173:1:1","Heilbronn Pfühlpark","49.139888710756","9.24166103179274","","","","Parent1593"
"de:08121:173:2:2","Heilbronn Pfühlpark","49.1400767714644","9.2405740702988","","","","Parent1593"
"de:08121:2000:1:3","Böckingen Berufsschulzentrum","49.1403353537733","9.1808271207437","","","","Parent1580"
"de:08121:2000:2:4","Böckingen Berufsschulzentrum","49.1404235065248","9.18208476214164","","","","Parent1580"
"de:08121:2001:1:1","Böckingen West","49.1393539092163","9.16480117607277","","","","Parent1581"
"de:08121:2001:2:2","Böckingen West","49.1392481236128","9.16609475008208","","","","Parent1581"
"de:08121:23:90:1","Heilbronn Harmonie/Kunsthalle","49.1428388309094","9.22273352875371","","","","Parent1605"
"de:08121:24:90:1","HN Harmonie/Hafenmarktpass.","49.1421806519912","9.22225742165306","","","","Parent1646"
"de:08121:26:1:1","Heilbronn Hbf","49.1429681150269","9.20740827000449","","","",""
"de:08121:3032:1:1","Heilbronn Friedensplatz","49.1412580114708","9.22937207870427","","","","Parent1592"
"de:08121:3032:2:2","Heilbronn Friedensplatz","49.1413285323716","9.22842884765582","","","","Parent1592"
"de:08121:3033:1:1","Heilbronn Finanzamt","49.1404235065248","9.23507638075923","","","","Parent1594"
"de:08121:3033:2:2","Heilbronn Finanzamt","49.1407819927655","9.23461823996426","","","","Parent1594"
"de:08121:31001:1:1","Heilbronn Techn. Schulzentrum","49.1491674802186","9.22161961780124","","","","Parent1629"
"de:08121:31001:1:2","Heilbronn Techn. Schulzentrum","49.1487267926625","9.22147588735576","","","","Parent1629"
"de:08121:31002:1:1","Heilbronn Theater","49.146323507551","9.22189809553936","","","","Parent1628"
"de:08121:31002:1:2","Heilbronn Theater","49.1462471176043","9.22217657327747","","","","Parent1628"
"de:08121:31003:1:1","Heilbronn Industrieplatz","49.1551016908273","9.21782872730173","","","","Parent1645"
"de:08121:31003:1:2","Heilbronn Industrieplatz","49.1557479480681","9.21805330612279","","","","Parent1645"
"de:08121:31004:1:1","Heilbronn Hans-Rießer-Straße","49.1626799953995","9.21966129048159","","","","Parent1613"
"de:08121:31004:1:2","Heilbronn Hans-Rießer-Straße","49.1620162057553","9.21950857688327","","","","Parent1613"
"de:08121:31501:1:1","Heilbronn Kaufland","49.1703863530106","9.22454812562788","","","","Parent1606"
"de:08121:31501:1:2","Heilbronn Kaufland","49.1698577539902","9.22448524355798","","","","Parent1606"
"de:08121:55:2:2","Heilbronn Rathaus","49.1420337358607","9.21835873331943","","","","Parent1587"
"de:08121:55:3:1","Heilbronn Rathaus","49.1420102292394","9.21867314366892","","","","Parent1587"
"de:08121:75:3:2","Heilbronn Sülmertor","49.151012449562","9.22016434704077","","","","Parent1590"
"de:08121:77:90:2","Böckingen Sonnenbrunnen","49.1403118463464","9.192954377081","","","","Parent30591"
"de:08121:77:91:1","Böckingen Sonnenbrunnen","49.1409289126068","9.18961264422361","","","","Parent30591"
"de:08121:8170:1:1","Heilbronn Trappensee","49.1408290071621","9.25395896803405","","","","Parent1595"
"de:08121:8170:2:2","Heilbronn Trappensee","49.1400062487823","9.25169521351775","","","","Parent1595"
"de:08125:1023:2:1","Eschenau (b. Heilbronn)","49.1441610389235","9.40405846887847","","","","Parent1575"
"de:08125:1023:3:2","Eschenau (b. Heilbronn)","49.1435733952726","9.40157911869396","","","","Parent1575"
"de:08125:1110:2:1","Eppingen West","49.1324891309135","8.904110080585","0278","","","Parent1569"
"de:08125:1110:90:2","Eppingen West","49.1326008087154","8.9046400866027","0278","","","Parent1569"
"de:08125:1120:2:1","Bad Friedrichshall-Kochendorf","49.2190695984204","9.2106691544863","","","","Parent1610"
"de:08125:1120:2:2","Bad Friedrichshall-Kochendorf","49.2186001951083","9.21095661537726","","","","Parent1610"
"de:08125:1565:1:1","Wieslensdorf","49.1497433060515","9.42214155555032","","","","Parent1565"
"de:08125:1565:2:2","Wieslensdorf","49.1498843236026","9.4225188479697","","","","Parent1565"
"de:08125:1598:1:1","Weinsberg/Ellhofen Gewerbegebiet","49.1487914270827","9.3060343050617","","","","Parent1598"
"de:08125:1598:2:2","Weinsberg/Ellhofen Gewerbegebiet","49.148685661624","9.30479462996945","","","","Parent1598"
"de:08125:1630:1:1","Bad Rappenau Kurpark","49.2403934081927","9.11357025541231","","","",""
"de:08125:1700:2:1","Stetten am Heuchelberg","49.1369913102823","9.01524964755174","","","","Parent34814"
"de:08125:1700:2:2","Stetten am Heuchelberg","49.1366798149555","9.01414471975212","","","","Parent34814"
"de:08125:1705:1:2","Schwaigern West","49.1388602411347","9.04307047190479","","","","Parent1583"
"de:08125:1939:1:1","Weinsberg West","49.1512650992509","9.27459327011314","","","","Parent1596"
"de:08125:1939:2:0","Weinsberg West","49.1512180947552","9.27334461186804","","","","Parent1596"
"de:08125:2002:1:1","Bad Wimpfen","49.2298177142859","9.16721764418739","","","","Parent1614"
"de:08125:2003:2:2","Ellhofen","49.1499137022085","9.31557441338038","","","","Parent1599"
"de:08125:2003:3:1","Ellhofen","49.1499842107918","9.31657154334589","","","","Parent1599"
"de:08125:2004:1:1","Sülzbach","49.1482449697823","9.34131114627399","","","","Parent1570"
"de:08125:2004:2:2","Sülzbach","49.1485446406611","9.3398738418192","","","","Parent1570"
"de:08125:2005:1:1","Sülzbach Schule","49.1446899122512","9.35190228347523","","","","Parent1571"
"de:08125:2005:2:2","Sülzbach Schule","49.1451893985444","9.35054582739602","","","","Parent1571"
"de:08125:2017:1:1","Willsbach","49.1428623371377","9.35731014148638","","","","Parent1573"
"de:08125:2017:2:2","Willsbach","49.142398087065","9.35842405243885","","","","Parent1573"
"de:08125:2032:2:1","Affaltrach","49.1379316616581","9.37948056270154","","","","Parent1574"
"de:08125:2032:4:2","Affaltrach","49.1376906983181","9.37861818002867","","","","Parent1574"
"de:08125:31502:1:1","Neckarsulm Süd","49.1803934294831","9.22062248783573","","","","Parent1607"
"de:08125:31502:1:2","Neckarsulm Süd","49.1802055218037","9.22064943729426","","","","Parent1607"
"de:08125:31503:1:1","Neckarsulm Mitte","49.1934688770383","9.22301200649182","","","","Parent1608"
"de:08125:31503:1:2","Neckarsulm Mitte","49.1926763461333","9.22237420264001","","","","Parent1608"
"de:08125:31504:1:1","Neckarsulm Nord","49.2021506618805","9.22875224115814","","","","Parent1609"
"de:08125:31504:1:2","Neckarsulm Nord","49.2014521838419","9.22853664548992","","","","Parent1609"
"de:08125:33415","Elsenz Freudenhälde","49.1715727435964","8.8430515907149","0278","","","Parent13415"
"de:08125:3900:2:1","Gemmingen","49.151664635664","8.98353911801791","","","","Parent34811"
"de:08125:3900:2:2","Gemmingen","49.1513826102951","8.98430268600951","","","","Parent34811"
"de:08125:4344:1:1","Weinsberg","49.1484858818081","9.2855257671224","","","","Parent1597"
"de:08125:4344:1:2","Weinsberg","49.1480921956956","9.28645103186517","","","","Parent1597"
"de:08125:4391:1:1","Schwaigern Ost","49.1405292896196","9.06913059830073","","","","Parent1584"
"de:08125:4405:1:1","Gemmingen West","49.1547550584696","8.97699039959576","","","","Parent1582"
"de:08125:4557:1:1","Offenau","49.2461759414489","9.16509762011657","","","","Parent1636"
"de:08125:4557:2:1","Offenau","49.2475540314989","9.16500778858815","","","","Parent1636"
"de:08125:4557:3:2","Offenau","49.2452962893909","9.16549287884164","","","","Parent1636"
"de:08125:4569:1:ohne","Gundelsheim (Neckar)","49.2828493411768","9.15838720494327","","","","Parent1637"
"de:08125:4569:2:1","Gundelsheim (Neckar)","49.283382592649","9.15783923261988","","","","Parent1637"
"de:08125:4569:4:2","Gundelsheim (Neckar)","49.2823043639339","9.15819855873358","","","","Parent1637"
"de:08125:4595:1:1","Bad Wimpfen Im Tal","49.2297766506069","9.1869446478294","","","","Parent1612"
"de:08125:4615:2:1","Bad Rappenau","49.2376250593057","9.10119147079542","","","","Parent1631"
"de:08125:4615:5:2","Bad Rappenau","49.237707173582","9.10116452133689","","","","Parent1631"
"de:08125:519:1:2","Bad Friedrichshall Hbf","49.2322345449848","9.19994326999242","","","","Parent1476"
"de:08125:519:1:20","Bad Friedrichshall Hbf","49.2322521428329","9.19990733738105","","","","Parent1476"
"de:08125:519:2:1","Bad Friedrichshall Hbf","49.2318121947476","9.19987140476968","","","","Parent1476"
"de:08125:519:3:3","Bad Friedrichshall Hbf","49.2317418026903","9.19981750585263","","","","Parent1476"
"de:08125:519:5:10","Bad Friedrichshall Hbf","49.2314543674155","9.19947614604461","","","","Parent1476"
"de:08125:519:5:11","Bad Friedrichshall Hbf","49.2313722427441","9.19933241559913","","","","Parent1476"
"de:08125:5404:1:1","Eppingen","49.1360862052338","8.91446765581234","0278","","","Parent32094"
"de:08125:5404:90:2","Eppingen","49.1362331389953","8.91506054389994","0278","","","Parent32094"
"de:08125:5404:90:3","Eppingen","49.1359804126558","8.91471918409193","0278","","","Parent32094"
"de:08125:5606:2:1","Bad Wimpfen-Hohenstadt","49.2427745333046","9.13924410623602","","","",""
"de:08125:620:90:7","Neckarsulm","49.1890187982714","9.21956247580032","","","","Parent1591"
"de:08125:620:90:8","Neckarsulm","49.1889894428608","9.2197062062458","","","","Parent1591"
"de:08125:6232:2:1","Babstadt","49.2401529433629","9.06032710851513","","","","Parent1632"
"de:08125:665:1:1","Elsenz Rathaus","49.1753079263003","8.8354967591744","0278","","","Parent13416"
"de:08125:665:1:2","Elsenz Rathaus","49.1752139628957","8.83538896134029","0278","","","Parent13416"
"de:08125:666:1:1","Elsenz Siedlung","49.182301826434","8.83500268576807","0278","","","Parent13418"
"de:08125:666:1:2","Elsenz Siedlung","49.1829124979157","8.83451759551457","0278","","","Parent13418"
"de:08125:693:90:2","Schwaigern (Württ.)","49.1383665681358","9.05699435881058","","","","Parent34812"
"de:08125:7401:1:1","Leingarten","49.1450189861396","9.12240967780927","","","","Parent34813"
"de:08125:7401:1:2","Leingarten","49.1451188831376","9.12114305325849","","","","Parent34813"
"de:08125:7403:1:2","Leingarten Mitte","49.1458827946994","9.11144124818865","","","","Parent1585"
"de:08125:7403:2:1","Leingarten Mitte","49.1454068204169","9.11415416034706","","","","Parent1585"
"de:08125:7404:2:1","Leingarten West","49.1459591852078","9.10551236731263","","","","Parent34815"
"de:08125:7404:3:2","Leingarten West","49.1460179470573","9.10630288476277","","","","Parent34815"
"de:08125:8402:1:2","Leingarten Ost","49.1446605305477","9.12957823377754","","","","Parent1589"
"de:08125:8402:2:1","Leingarten Ost","49.1436791716441","9.13238097746439","","","","Parent1589"
"de:08125:9200:2:1","Grombach","49.2261687798682","8.99683418422472","","","","Parent1635"
"de:08125:9200:3:2","Grombach","49.2261159798039","8.99684316737757","","","","Parent1635"
"de:08126:10101:2:1","Bretzfeld","49.1723597394875","9.44020667591647","","","","Parent1576"
"de:08126:10101:3:2","Bretzfeld","49.1730175174995","9.44061990094723","","","","Parent1576"
"de:08126:10220:2:1","Öhringen Hbf","49.2033304217094","9.50209161584808","","","","Parent1572"
"de:08126:10220:3:2","Öhringen Hbf","49.2030193434918","9.50393316218078","","","","Parent1572"
"de:08126:19600:90:1","Scheppach","49.162022080039","9.43447542440299","","","","Parent1578"
"de:08126:19600:91:2","Scheppach","49.1613994020935","9.43404423306656","","","","Parent1578"
"de:08126:19601:90:1","Bitzfeld","49.187474680041","9.45361852311024","","","","Parent1579"
"de:08126:19601:91:2","Bitzfeld","49.1870695611945","9.45305258448117","","","","Parent1579"
"de:08126:19602:2:2","Öhringen-Cappel","49.2020156626926","9.52739715740525","","","","Parent1546"
"de:08126:19602:90:1","Öhringen-Cappel","49.2019452281874","9.52650782527385","","","","Parent1546"
"de:08126:19603:1:1","Öhringen West","49.2003662950323","9.48622736792832","","","","Parent1577"
"de:08126:19603:2:1","Öhringen West","49.2000786772456","9.48522125480997","","","","Parent1577"
"de:08211:1847:2:11","Baden-Baden Bahnhof","48.7896590091848","8.19082977858913","0480","","","Parent1847"
"de:08211:1847:2:12","Baden-Baden Bahnhof","48.7895524791695","8.19071299760218","0480","","","Parent1847"
"de:08211:1847:2:13","Baden-Baden Bahnhof","48.7894400305745","8.19060519976807","0480","","","Parent1847"
"de:08211:1847:2:21","Baden-Baden Bahnhof","48.7897063557857","8.19110825632724","0480","","","Parent1847"
"de:08211:1847:2:22","Baden-Baden Bahnhof","48.789641254198","8.1910363911045","0480","","","Parent1847"
"de:08211:1847:2:23","Baden-Baden Bahnhof","48.7895347241449","8.19092859327039","0480","","","Parent1847"
"de:08211:1847:2:24","Baden-Baden Bahnhof","48.7894518672806","8.19084774489481","0480","","","Parent1847"
"de:08211:1847:2:31","Baden-Baden Bahnhof","48.7895347241449","8.19117113839714","0480","","","Parent1847"
"de:08211:1847:3:1","Baden-Baden","48.7902094106611","8.19099147534029","0480","","","Parent1847"
"de:08211:31836:0:1","Steinbach Ziegelei","48.7321295087091","8.16709628877939","0480","","","Parent31836"
"de:08211:31836:0:2","Steinbach Ziegelei","48.7322539358751","8.16723103607202","0480","","","Parent31836"
"de:08211:31837:0:1","Baden-Baden Wörthstraße","48.7837048180785","8.20294805177359","0480","","","Parent31837"
"de:08211:31837:0:2","Baden-Baden Wörthstraße","48.7833319177929","8.20346009148561","0480","","","Parent31837"
"de:08211:31837:0:3","Baden-Baden Wörthstraße","48.7840126067032","8.20186109027965","0480","","","Parent31837"
"de:08211:31838:0:1","Ebersteinburg Wolfsschlucht","48.7743992401053","8.27665482084585","0480","","","Parent31838"
"de:08211:31838:0:2","Ebersteinburg Wolfsschlucht","48.7741683545991","8.27575650556161","0480","","","Parent31838"
"de:08211:31838:0:3","Ebersteinburg Wolfsschlucht","48.7746005240392","8.27570260664455","0480","","","Parent31838"
"de:08211:31839:0:1","Baden-Baden Wilhelm-Drapp-Str","48.7956420819469","8.19803426716877","0480","","","Parent31839"
"de:08211:31839:0:2","Baden-Baden Wilhelm-Drapp-Str","48.7954704706104","8.1980612166273","0480","","","Parent31839"
"de:08211:31840:0:1","Baden-Baden Werderstraße","48.7590163926327","8.23084972450222","0480","","",""
"de:08211:31841:0:1","Baden-Baden Waldseestr./Verfassungsplatz","48.7698050109158","8.22953818418723","0480","","","Parent31841"
"de:08211:31841:0:2","Baden-Baden Waldseestr./Verfassungsplatz","48.7701365673025","8.22829850909497","0480","","","Parent31841"
"de:08211:31842:0:1","Ebersteinburg Waldkapelle","48.7764061232382","8.2870573118374","0480","","","Parent31842"
"de:08211:31842:0:2","Ebersteinburg Waldkapelle","48.776246285929","8.28658120473676","0480","","","Parent31842"
"de:08211:31843:0:1","Baden-Baden Waldcafé","48.7623621780487","8.26046717942377","0480","","","Parent31843"
"de:08211:31843:0:2","Baden-Baden Waldcafé","48.7624332365609","8.26055701095219","0480","","","Parent31843"
"de:08211:31844:0:1","Baden-Baden Voglergasse","48.7470585700864","8.24447716736421","0480","","",""
"de:08211:31845:0:1","Varnhalt Kirche","48.7353348912955","8.17925947772806","0480","","","Parent31845"
"de:08211:31845:0:2","Varnhalt Kirche","48.7351038261882","8.17968168591165","0480","","","Parent31845"
"de:08211:31846:0:1","Baden-Baden U.Prinz-Weimar-Str","48.7637004298121","8.25058571129708","0480","","","Parent31846"
"de:08211:31846:0:2","Baden-Baden U.Prinz-Weimar-Str","48.7638484643212","8.25124148145457","0480","","","Parent31846"
"de:08211:31847:0:1","Steinbach Umweger Str.","48.7286454230409","8.17659148133385","0480","","","Parent31847"
"de:08211:31847:0:2","Steinbach Umweger Str.","48.7278454713364","8.17603452585762","0480","","","Parent31847"
"de:08211:31848:0:91","Steinbach Satzweg (Ersatzhalt)","48.7267077403258","8.17565723343824","0480","","","Parent31848"
"de:08211:31848:0:92","Steinbach Satzweg (Ersatzhalt)","48.7267788492681","8.17546858722855","0480","","","Parent31848"
"de:08211:31849:0:1","Baden-Baden Tiergarten / cts-Klinik","48.749036930361","8.21832720943985","0480","","","Parent31849"
"de:08211:31849:0:2","Baden-Baden Tiergarten / cts-Klinik","48.7491257770488","8.21818347899437","0480","","","Parent31849"
"de:08211:31851:0:1","Lichtental Steinackergasse","48.7421537961574","8.26801302781142","0480","","","Parent31851"
"de:08211:31851:0:2","Lichtental Steinackergasse","48.7417213474749","8.2688754104843","0480","","","Parent31851"
"de:08211:31852:0:1","Balg Klinikum Mittelbaden","48.7864274980972","8.21818347899437","0480","","","Parent31852"
"de:08211:31852:0:2","Balg Klinikum Mittelbaden","48.7865399534431","8.21812958007732","0480","","","Parent31852"
"de:08211:31853:0:1","Baden-Baden Hauptfriedhof","48.7586847628235","8.25060367760276","0480","","",""
"de:08211:31854:0:1","Baden-Baden Stadelhoferstraße","48.7532362453674","8.23031971848452","0480","","","Parent31854"
"de:08211:31854:0:2","Baden-Baden Stadelhoferstraße","48.7533843107178","8.22976276300829","0480","","","Parent31854"
"de:08211:31855:0:1","Baden-Baden Solmsstraße","48.7601415488833","8.23454180032047","0480","","",""
"de:08211:31856:0:1","Baden-Baden Sinzheimer Str.","48.7871022263926","8.19440507342042","0480","","","Parent31856"
"de:08211:31856:0:2","Baden-Baden Sinzheimer Str.","48.7869365044938","8.19447693864316","0480","","","Parent31856"
"de:08211:31864:0:1","Baden-Baden Schirmhofweg","48.7503044615737","8.2217228412143","0480","","","Parent31864"
"de:08211:31864:0:2","Baden-Baden Schirmhofweg","48.7509382151897","8.22269302172128","0480","","","Parent31864"
"de:08211:31866:0:1","Lichtental Sauersbosch","48.7398611833218","8.27644820833048","0480","","","Parent31866"
"de:08211:31866:0:2","Lichtental Sauersbosch","48.7400803782172","8.27543311205928","0480","","","Parent31866"
"de:08211:31867:0:1","Sandweier Südring","48.8050502188541","8.18827856318187","0480","","","Parent31867"
"de:08211:31867:0:2","Sandweier Südring","48.8050088032508","8.18790127076249","0480","","","Parent31867"
"de:08211:31868:0:1","Sandweier Nord","48.8134568781282","8.19551000122004","0480","","","Parent31868"
"de:08211:31868:0:2","Sandweier Nord","48.8134332160408","8.19531237185751","0480","","","Parent31868"
"de:08211:31869:0:1","Sandweier Mühlstraße","48.8122974227123","8.19845647535236","0480","","","Parent31869"
"de:08211:31869:0:2","Sandweier Mühlstraße","48.8123624948999","8.19831274490689","0480","","","Parent31869"
"de:08211:31870:0:1","Sandweier Mitte","48.8081089624332","8.19544711915014","0480","","","Parent31870"
"de:08211:31870:0:2","Sandweier Mitte","48.8081977046263","8.19530338870467","0480","","","Parent31870"
"de:08211:31871:0:1","Sandweier Autobahnkirche","48.8093040107835","8.17487569914094","0480","","","Parent31871"
"de:08211:31871:0:2","Sandweier Autobahnkirche","48.8087952313041","8.17610639108036","0480","","","Parent31871"
"de:08211:31873:1:1","Baden-Baden Rheumazentrum","48.7633984380606","8.24711821429989","0480","","",""
"de:08211:31880:0:1","Baden-Baden Quettigstaffeln","48.7527683559921","8.23549401452177","0480","","",""
"de:08211:31882:0:1","Baden-Baden Obere Schußbach","48.7870371214262","8.21460818416308","0480","","","Parent31882"
"de:08211:31882:0:2","Baden-Baden Obere Schußbach","48.7872561105228","8.21441055480055","0480","","","Parent31882"
"de:08211:31883:0:1","Baden-Baden Ob.Prinz-Weimar-S","48.7607041175573","8.24979519384694","0480","","","Parent31883"
"de:08211:31883:0:2","Baden-Baden Ob.Prinz-Weimar-S","48.760621213096","8.24939095196903","0480","","","Parent31883"
"de:08211:31885:0:1","Baden-Baden Obere Breite","48.7812010058656","8.18853009146146","0480","","",""
"de:08211:31886:0:1","Baden-Baden Kaiser-Wilhelm-S.","48.7558184425229","8.23232296156838","0480","","",""
"de:08211:31887:0:1","Oberbeuern","48.7377758219188","8.28578170413378","0480","","",""
"de:08211:31889:0:1","BAD Moltkestr./Rosengarten","48.7577135486449","8.23030175217883","0480","","",""
"de:08211:31890:0:1","Baden-Baden Merkurwald","48.7628536640341","8.26454553081424","0480","","",""
"de:08211:31891:0:1","Baden-Baden Maximilianstraße","48.7519273286914","8.24873518181153","0480","","",""
"de:08211:31893:0:2","BAD Maximilianstr./Falkenstr.","48.7517733362523","8.24872619865869","0480","","",""
"de:08211:31896:0:1","Baden-Baden Markgrafenplatz","48.7589394073364","8.24704634907715","0480","","","Parent31896"
"de:08211:31896:0:2","Baden-Baden Markgrafenplatz","48.759010470691","8.24691160178452","0480","","","Parent31896"
"de:08211:31897:0:1","Baden-Baden Maria Halden","48.7492620083316","8.23377823232886","0480","","",""
"de:08211:31898:0:1","Malschbach","48.7223876834831","8.24228527807066","0480","","",""
"de:08211:31900:0:1","BAD Lilienmattstr./Klinik Annaberg","48.7650268034531","8.25277760059063","0480","","","Parent31900"
"de:08211:31900:0:2","BAD Lilienmattstr./Klinik Annaberg","48.7655597115691","8.25309201094012","0480","","","Parent31900"
"de:08211:31901:0:1","BAD Lichtentaler All./Museen","48.7547405690222","8.23868303378084","0480","","","Parent31901"
"de:08211:31901:0:2","BAD Lichtentaler All./Museen","48.7548175607535","8.23844947180693","0480","","","Parent31901"
"de:08211:31902:0:1","Lichtental","48.7425921649969","8.26408739001927","0480","","","Parent31902"
"de:08211:31902:0:2","Lichtental","48.742461839525","8.26429400253465","0480","","","Parent31902"
"de:08211:31903:0:1","Lichtental Lerchenbergweg","48.7391325015286","8.28125419510119","0480","","","Parent31903"
"de:08211:31903:0:2","Lichtental Lerchenbergweg","48.7390140156858","8.28126317825403","0480","","","Parent31903"
"de:08211:31904:0:1","Baden-Baden Leopoldstraße","48.7658794537243","8.24339918902312","0480","","",""
"de:08211:31905:0:1","Baden-Baden Kurfürstenstraße","48.7615805277794","8.24810636111256","0480","","","Parent31905"
"de:08211:31905:0:2","Baden-Baden Kurfürstenstraße","48.7613022099741","8.24810636111256","0480","","","Parent31905"
"de:08211:31906:0:1","Baden-Baden Kuppenheimer Str.","48.7919493498097","8.19452185440737","0480","","","Parent31906"
"de:08211:31906:0:2","Baden-Baden Kuppenheimer Str.","48.7925352341067","8.19625560290596","0480","","","Parent31906"
"de:08211:31906:0:3","Baden-Baden Kuppenheimer Str.","48.7924227921964","8.19480931529833","0480","","","Parent31906"
"de:08211:31907:0:1","Baden-Baden Kronprinzenstr.","48.7589097975756","8.23565571127293","0480","","",""
"de:08211:31908:0:1","Lichtental Klosterplatz","48.7463536863792","8.25598458615539","0480","","","Parent31908"
"de:08211:31908:0:2","Lichtental Klosterplatz","48.7463181457624","8.25582288940422","0480","","","Parent31908"
"de:08211:31909:0:1","BAD Klostergut Fremersberg","48.7444936936706","8.19742341277548","0480","","","Parent31909"
"de:08211:31909:0:2","BAD Klostergut Fremersberg","48.7446477084198","8.19728866548285","0480","","","Parent31909"
"de:08211:31910:0:1","Baden-Baden Klinik Dr. Dengler","48.7637418795186","8.2350987557967","0480","","",""
"de:08211:31911:0:1","Baden-Baden Kettenbrücke","48.7504051519347","8.24484547663075","0480","","","Parent31911"
"de:08211:31911:0:2","Baden-Baden Kettenbrücke","48.7504051519347","8.2447286956438","0480","","","Parent31911"
"de:08211:31920:0:1","Lichtental Höllhäuserweg","48.7391621229457","8.25788901455799","0480","","","Parent31920"
"de:08211:31920:0:2","Lichtental Höllhäuserweg","48.7392983812395","8.25774528411251","0480","","","Parent31920"
"de:08211:31921:1:1","Baden-Baden Hubertusstraße","48.7804847623753","8.20376551868225","0480","","","Parent31921"
"de:08211:31921:1:4","Baden-Baden Hubertusstraße","48.780360454613","8.2038194175993","0480","","","Parent31921"
"de:08211:31922:0:1","Baden-Baden Otto-Flake-Str.","48.7661518250656","8.23082277504369","0480","","",""
"de:08211:31923:0:1","Steinbach Hohlgasse","48.7304230479341","8.17115667386417","0480","","","Parent31923"
"de:08211:31923:0:2","Steinbach Hohlgasse","48.7301978855902","8.17143515160229","0480","","","Parent31923"
"de:08211:31924:0:1","Baden-Baden Hochstraße","48.7644346766918","8.23191871969047","0480","","",""
"de:08211:31925:1:1","Baden-Baden Hochhaus","48.7852200669258","8.19252759447635","0480","","","Parent31925"
"de:08211:31925:1:2","Baden-Baden Hochhaus","48.7850780142898","8.19224911673824","0480","","","Parent31925"
"de:08211:31925:2:3","Baden-Baden Hochhaus","48.7856343848174","8.19190775693022","0480","","","Parent31925"
"de:08211:31925:2:4","Baden-Baden Hochhaus","48.7849477990202","8.19088367750618","0480","","","Parent31925"
"de:08211:31926:0:1","Geroldsau Heschmattweg","48.7295875720614","8.25385557893173","0480","","","Parent31926"
"de:08211:31926:0:2","Geroldsau Heschmattweg","48.7300260504915","8.25397235991868","0480","","","Parent31926"
"de:08211:31927:0:1","Baden-Baden Herrengut","48.7667912998004","8.24237510959908","0480","","",""
"de:08211:31928:0:1","Baden-Baden Haus Reich","48.7529756492909","8.24395614449935","0480","","",""
"de:08211:31929:0:1","Baden-Baden Haus Planeck","48.7497417764305","8.23766793750964","0480","","",""
"de:08211:31930:0:1","Haueneberstein Siemensstraße","48.8114337293132","8.21826432736996","0480","","","Parent31930"
"de:08211:31930:0:2","Haueneberstein Siemensstraße","48.8109604663464","8.21806669800742","0480","","","Parent31930"
"de:08211:31930:0:3","Haueneberstein Siemensstraße","48.8105759368965","8.21816551268869","0480","","","Parent31930"
"de:08211:31931:0:1","Haueneberstein Industriegebiet","48.8120785429159","8.2111406871659","0480","","",""
"de:08211:31932:0:1","Baden-Baden Hans-Thoma-Str.","48.748954006644","8.24080305785165","0480","","",""
"de:08211:31933:0:1","Baden-Baden H.-Bredow-Str/SWR","48.7522649258485","8.22560356324223","0480","","","Parent31933"
"de:08211:31933:0:2","Baden-Baden H.-Bredow-Str/SWR","48.7524129940614","8.22551373171381","0480","","","Parent31933"
"de:08211:31934:0:1","Baden-Baden Große Dollenstr.","48.7743992401053","8.22314217936341","0480","","","Parent31934"
"de:08211:31934:0:2","Baden-Baden Große Dollenstr.","48.7740499513635","8.22340269079584","0480","","","Parent31934"
"de:08211:31935:0:1","Baden-Baden Golfplatz","48.7469223328297","8.2116706931836","0480","","","Parent31935"
"de:08211:31935:0:2","Baden-Baden Golfplatz","48.7470348766769","8.21157187850234","0480","","","Parent31935"
"de:08211:31936:0:1","Balg Gaßeck","48.7897537023419","8.22750799164483","0480","","","Parent31936"
"de:08211:31936:0:2","Balg Gaßeck","48.7901739010706","8.22778646938295","0480","","","Parent31936"
"de:08211:31937:0:1","Baden-Baden Gausplatz","48.7548234831895","8.24224036230644","0480","","","Parent31937"
"de:08211:31937:0:2","Baden-Baden Gausplatz","48.7549478541838","8.24221341284792","0480","","","Parent31937"
"de:08211:31938:0:1","Varnhalt Gallenbach","48.7403469653154","8.18037338868052","0480","","","Parent31938"
"de:08211:31938:0:2","Varnhalt Gallenbach","48.7396005178776","8.1796906690645","0480","","","Parent31938"
"de:08211:31940:1:2","Baden-Baden Friedrichshöhe","48.7618884520649","8.25275963428495","0480","","","Parent31940"
"de:08211:31940:2:3","Baden-Baden Friedrichshöhe","48.7621134724643","8.25303811202306","0480","","","Parent31940"
"de:08211:31940:2:4","Baden-Baden Friedrichshöhe","48.762225982286","8.25266081960368","0480","","","Parent31940"
"de:08211:31944:0:1","Baden-Baden Falkenstraße","48.7530407984367","8.24651634305945","0480","","",""
"de:08211:31945:0:1","Baden-Baden Entenstallhütte","48.7463477629448","8.20674792542594","0480","","","Parent31945"
"de:08211:31945:0:2","Baden-Baden Entenstallhütte","48.7464484612345","8.20664012759183","0480","","","Parent31945"
"de:08211:31946:0:1","Baden-Baden Engel/Höhenblick","48.7673064263037","8.23841353919556","0480","","","Parent31946"
"de:08211:31946:0:2","Baden-Baden Engel/Höhenblick","48.7668209049149","8.23906032620022","0480","","","Parent31946"
"de:08211:31948:0:1","Lichtental Eckerlestraße","48.7489125447342","8.25369388218056","0480","","","Parent31948"
"de:08211:31948:0:2","Lichtental Eckerlestraße","48.748574925052","8.25402625883573","0480","","","Parent31948"
"de:08211:31949:0:1","Baden-Baden Ebertplatz","48.7721317800428","8.22552271486665","0480","","","Parent31949"
"de:08211:31949:0:2","Baden-Baden Ebertplatz","48.7715811802935","8.22602577142583","0480","","","Parent31949"
"de:08211:31950:0:1","Ebersteinburg Klinik","48.7747366862428","8.27334003744699","0480","","","Parent31950"
"de:08211:31950:0:2","Ebersteinburg Klinik","48.7748373276341","8.27302562709751","0480","","","Parent31950"
"de:08211:31952:0:1","Ebersteinburg Kapelle","48.7779275121481","8.27122899652902","0480","","",""
"de:08211:31953:0:1","Baden-Baden Dreieichenkapelle","48.7780518259357","8.21778822026931","0480","","","Parent31953"
"de:08211:31953:0:2","Baden-Baden Dreieichenkapelle","48.7780103880407","8.21750075937835","0480","","","Parent31953"
"de:08211:31956:0:1","Neuweier Buchgasse","48.7255462800349","8.17329466424067","0480","","","Parent31956"
"de:08211:31956:0:2","Neuweier Buchgasse","48.7253625772259","8.17342941153331","0480","","","Parent31956"
"de:08211:31956:0:91","Neuweier Buchgasse","48.7253092440267","8.17376178818848","0480","","","Parent31956"
"de:08211:31956:0:92","Neuweier Buchgasse","48.7254929470305","8.1735551756731","0480","","","Parent31956"
"de:08211:31957:0:1","Baden-Baden Bismarckstraße","48.7537752011462","8.23413755844256","0480","","","Parent31957"
"de:08211:31957:0:2","Baden-Baden Bismarckstraße","48.7538699620041","8.23394891223287","0480","","","Parent31957"
"de:08211:31958:0:1","Baden-Baden Birkenbuckel","48.7516844942459","8.23594317216389","0480","","",""
"de:08211:31959:0:1","Lichtental Bildeiche","48.7415910197451","8.27113916500059","0480","","","Parent31959"
"de:08211:31959:0:2","Lichtental Bildeiche","48.7413955275167","8.27187578353367","0480","","","Parent31959"
"de:08211:31960:0:1","Baden-Baden Bertholdplatz","48.7552202848097","8.24359681838565","0480","","","Parent31960"
"de:08211:31960:0:2","Baden-Baden Bertholdplatz","48.7554986363147","8.24353393631576","0480","","","Parent31960"
"de:08211:31962:0:1","Balg Baumackerstraße","48.7875046915825","8.22176775697851","0480","","","Parent31962"
"de:08211:31962:0:2","Balg Baumackerstraße","48.7876171445145","8.22183063904841","0480","","","Parent31962"
"de:08211:31963:0:1","Baden-Baden Bauernfeldstraße","48.7815739219838","8.19986683034863","0480","","","Parent31963"
"de:08211:31963:0:2","Baden-Baden Bauernfeldstraße","48.7814436976224","8.19990276296","0480","","","Parent31963"
"de:08211:31964:0:1","Balg Kirche","48.7886469649073","8.22572932738203","0480","","","Parent31964"
"de:08211:31964:0:2","Balg Kirche","48.7885463512027","8.2254059338797","0480","","","Parent31964"
"de:08211:31965:0:1","Balg Friedhof","48.7905289958445","8.23093955603065","0480","","",""
"de:08211:31967:0:1","Lichtental Aubrücke","48.7502333859033","8.25140317820574","0480","","","Parent31967"
"de:08211:31967:0:2","Lichtental Aubrücke","48.7497476994648","8.25200504944618","0480","","","Parent31967"
"de:08211:31968:0:1","Varnhalt Am Kirchberg","48.73749737223","8.17787607219032","0480","","","Parent31968"
"de:08211:31968:0:2","Varnhalt Am Kirchberg","48.7374499763846","8.17768742598063","0480","","","Parent31968"
"de:08211:32170:0:1","Geroldsau Geroldsauer Mühle","48.7349616317481","8.25535576545642","0480","","","Parent32170"
"de:08211:32170:0:2","Geroldsau Geroldsauer Mühle","48.7351867727591","8.25505932141261","0480","","","Parent32170"
"de:08211:32209:1:1","BAD Hindenburgpl./Stadtbib.","48.7642155880208","8.23703013365783","0480","","","Parent32209"
"de:08211:32209:1:2","BAD Hindenburgpl./Stadtbib.","48.7639372848172","8.23685047060098","0480","","","Parent32209"
"de:08211:32254:2:4","BAD Hindenburgplatz (Kaiserallee)","48.7639372848172","8.23631148143043","0480","","","Parent32254"
"de:08211:32355:0:1","Steinbach Yburgstr./Sportsch.","48.7276736281987","8.16692560887538","0480","","","Parent32355"
"de:08211:32355:0:2","Steinbach Yburgstr./Sportsch.","48.7275610409969","8.16683577734696","0480","","","Parent32355"
"de:08211:32356:0:1","Steinbach Vimbucher Str.","48.7310274260822","8.15105237780278","0480","","","Parent32356"
"de:08211:32356:0:2","Steinbach Vimbucher Str.","48.731009650358","8.15089068105161","0480","","","Parent32356"
"de:08211:32357:0:1","Steinbach Schule","48.7300497519193","8.16318861729292","0480","","","Parent32357"
"de:08211:32357:0:2","Steinbach Schule","48.729919393928","8.16293708901333","0480","","","Parent32357"
"de:08211:32360:0:1","Steinbach Steinbacher Str./Postplatz","48.7278573225656","8.15900246806834","0480","","","Parent32360"
"de:08211:32360:0:2","Steinbach Steinbacher Str./Postplatz","48.7279817603039","8.15925399634793","0480","","","Parent32360"
"de:08211:32361:0:1","Steinbach Yburgstraße/Postplatz","48.7281773046991","8.15992773281111","0480","","",""
"de:08211:32362:0:1","Steinbach Alte Landstr.","48.7328168168266","8.16493134894436","0480","","","Parent32362"
"de:08211:32362:0:2","Steinbach Alte Landstr.","48.7327694165684","8.16476965219319","0480","","","Parent32362"
"de:08211:32363:0:1","Neuweier Winzergenossenschaft","48.7236973695416","8.17816353308128","0480","","","Parent32363"
"de:08211:32363:0:2","Neuweier Winzergenossenschaft","48.7235551428421","8.17818149938696","0480","","","Parent32363"
"de:08211:32364:0:1","Neuweier Schneckenbach","48.7175101363195","8.18072373164138","0480","","","Parent32364"
"de:08211:32364:0:2","Neuweier Schneckenbach","48.7174686484707","8.18049016966747","0480","","","Parent32364"
"de:08211:32365:0:1","Steinbach Poststraße/Postplatz","48.728835039357","8.15796042233862","0480","","",""
"de:08211:32366:0:1","Neuweier Kirche","48.7214928105009","8.18599684235989","0480","","","Parent32366"
"de:08211:32366:0:2","Neuweier Kirche","48.7215283686715","8.18588006137294","0480","","","Parent32366"
"de:08211:32368:0:1","Steinbach Grabenstraße/Postplatz","48.7286809761546","8.15957738985026","0480","","","Parent32368"
"de:08211:32368:0:92","Steinbach Grabenstraße/Postplatz","48.7286631996009","8.15973908660142","0480","","","Parent32368"
"de:08211:32369:0:91","Steinbach Yburgstr./Häfnergasse","48.7281061977343","8.16308081945881","0480","","",""
"de:08211:32370:1:1","Lichtental Brahmsplatz","48.7443278311052","8.25943411684688","0480","","","Parent32370"
"de:08211:32370:1:2","Lichtental Brahmsplatz","48.7445647774597","8.25936225162415","0480","","","Parent32370"
"de:08211:32371:0:1","Haueneberstein Waldstraße","48.8082272853224","8.22463338273525","0480","","","Parent32371"
"de:08211:32371:0:2","Haueneberstein Waldstraße","48.8088721401613","8.22511847298874","0480","","","Parent32371"
"de:08211:32372:0:1","Haueneberstein Karlsruher Str.","48.8064228309251","8.22230674614906","0480","","","Parent32372"
"de:08211:32372:0:2","Haueneberstein Karlsruher Str.","48.8062867546819","8.22185758850694","0480","","","Parent32372"
"de:08211:32373:0:1","Haueneberstein Bahnhofstraße","48.8076711653155","8.22248640920591","0480","","",""
"de:08211:32374:0:1","Geroldsau Schule","48.7273417915122","8.2493640025105","0480","","","Parent32374"
"de:08211:32374:0:2","Geroldsau Schule","48.7277802895257","8.24946281719177","0480","","","Parent32374"
"de:08211:32375:0:1","Geroldsau Schmiegrankweg","48.7321354338192","8.25733205908175","0480","","","Parent32375"
"de:08211:32375:0:2","Geroldsau Schmiegrankweg","48.7318569528884","8.25682900252258","0480","","","Parent32375"
"de:08211:32376:0:1","Geroldsau Malschbacher Str.","48.7245744253011","8.2475224561778","0480","","","Parent32376"
"de:08211:32376:0:2","Geroldsau Malschbacher Str.","48.725084058784","8.24737872573232","0480","","","Parent32376"
"de:08211:32379:0:1","Baden-Baden Schweigrother Platz","48.7817100652731","8.20956863541847","0480","","","Parent32379"
"de:08211:32379:0:2","Baden-Baden Schweigrother Platz","48.7815502448523","8.20945185443152","0480","","","Parent32379"
"de:08211:32379:0:3","Baden-Baden Schweigrother Platz","48.7817100652731","8.21014355720039","0480","","","Parent32379"
"de:08211:32380:1:1","Baden-Baden L.-Wilhelm-Stift","48.764310329185","8.249849092764","0480","","","Parent32380"
"de:08211:32380:1:2","Baden-Baden L.-Wilhelm-Stift","48.7645116535656","8.25002875582084","0480","","","Parent32380"
"de:08211:32380:2:3","Baden-Baden L.-Wilhelm-Stift","48.7646537644072","8.25012757050211","0480","","","Parent32380"
"de:08211:32380:2:4","Baden-Baden L.-Wilhelm-Stift","48.7646952133269","8.24998384005663","0480","","","Parent32380"
"de:08211:32384:0:1","Baden-Baden Königsberger Str.","48.7815265677097","8.18721855114647","0480","","","Parent32384"
"de:08211:32384:0:2","Baden-Baden Königsberger Str.","48.7813726660102","8.18725448375783","0480","","","Parent32384"
"de:08211:32385:0:1","Baden-Baden Kleine Dollenstr.","48.7761042078937","8.2204741829692","0480","","","Parent32385"
"de:08211:32385:0:2","Baden-Baden Kleine Dollenstr.","48.7759562095127","8.22042028405214","0480","","","Parent32385"
"de:08211:32387:0:1","Baden-Baden Caracalla Therme","48.7625042949725","8.24433343691874","0480","","","Parent32387"
"de:08211:32387:0:2","Baden-Baden Caracalla Therme","48.7625635102387","8.24411784125052","0480","","","Parent32387"
"de:08211:32388:1:1","BAD Augustapl. / Museum Burda","48.7585840890554","8.24109051874261","0480","","","Parent32388"
"de:08211:32388:1:2","BAD Augustapl. / Museum Burda","48.7584182729975","8.24107255243693","0480","","","Parent32388"
"de:08211:32388:1:3","BAD Augustapl. / Museum Burda","48.7581399376698","8.24149476062052","0480","","","Parent32388"
"de:08211:32388:2:4","Baden-Baden Augustaplatz","48.7584182729975","8.24083899046302","0480","","","Parent32388"
"de:08211:32388:2:5","BAD Augustapl. / Museum Burda","48.758299832621","8.24093780514429","0480","","","Parent32388"
"de:08211:32388:2:6","BAD Augustapl. / Museum Burda","48.7581873140047","8.2410456029784","0480","","","Parent32388"
"de:08211:32389:0:1","Baden-Baden Festspielhaus","48.7676379991886","8.23277211921051","0480","","","Parent32389"
"de:08211:32389:0:2","Baden-Baden Festspielhaus","48.7677208920678","8.23244872570818","0480","","","Parent32389"
"de:08211:32392:1:11","BAD Leopoldsplatz (Luisenstraße)","48.761681195542","8.23862015171094","0480","","","Parent32392"
"de:08211:32392:1:12","BAD Leopoldsplatz (Luisenstraße)","48.761254836577","8.23942863546676","0480","","","Parent32392"
"de:08211:32393:1:21","Baden-Baden Leopoldspl. (Sophienstr.)","48.7611423245799","8.24047966434932","0480","","","Parent32393"
"de:08211:32393:1:22","Baden-Baden Leopoldspl. (Sophienstr.)","48.7612489148992","8.24013830454131","0480","","","Parent32393"
"de:08211:32832:0:1","Varnhalt Im Lindenbosch","48.7374381274163","8.17738199878399","0480","","","Parent32832"
"de:08211:32832:0:2","Varnhalt Im Lindenbosch","48.7360754774315","8.17529790732454","0480","","","Parent32832"
"de:08211:33088:1:1","Baden-Baden Pariser Platz Cité","48.7790285664114","8.20133108426195","0480","","","Parent33088"
"de:08211:33089:1:1","Baden-Baden Campus Cité / VHS","48.7799934489471","8.19555491698426","0480","","","Parent33089"
"de:08211:33090:1:1","Baden-Baden Shopping Cité","48.783574599246","8.19237488087803","0480","","",""
"de:08211:33091:0:1","Baden-Baden Gewerbepark Cité","48.7840777155935","8.19524050663477","0480","","","Parent33091"
"de:08211:33091:0:2","Baden-Baden Gewerbepark Cité","48.7840599586318","8.19505186042508","0480","","","Parent33091"
"de:08211:33108:1:1","Baden-Baden Kino Cité / P+R","48.7811891672133","8.19464761854717","0480","","","Parent33108"
"de:08211:33109:0:1","Baden-Baden Bretagne","48.7793955791322","8.19065011553228","0480","","","Parent33109"
"de:08211:33109:0:2","Baden-Baden Bretagne","48.7791173600577","8.19117113839714","0480","","","Parent33109"
"de:08211:33151:1:1","Haueneberstein R.-Bosch-Straße","48.8122264347749","8.21510225756942","0480","","","Parent33151"
"de:08211:33151:2:2","Haueneberstein R.-Bosch-Straße","48.8115224656222","8.21428479066075","0480","","","Parent33151"
"de:08211:34755:0:1","Baden-Baden Zimmerplatz","48.715500899771","8.22735527804651","0480","","","Parent34755"
"de:08211:34755:0:2","Baden-Baden Zimmerplatz","48.7155957327989","8.2270139182385","0480","","","Parent34755"
"de:08211:34756:0:1","Baden-Baden Schwanenwasen","48.6879384055577","8.23042751631863","0480","","","Parent34756"
"de:08211:34756:0:2","Baden-Baden Schwanenwasen","48.6879502661891","8.23025683641462","0480","","","Parent34756"
"de:08211:34757:0:1","Baden-Baden Dr. Fecht Waldheim","48.6792497425269","8.23407467637266","0480","","","Parent34757"
"de:08211:34757:0:2","Baden-Baden Dr. Fecht Waldheim","48.6781583642196","8.23416450790109","0480","","","Parent34757"
"de:08211:34769:0:1","Baden-Baden Ooswinkel","48.7772408209173","8.21264087369059","0480","","","Parent34769"
"de:08211:34769:0:2","Baden-Baden Ooswinkel","48.7771283447342","8.21257799162069","0480","","","Parent34769"
"de:08211:34770:0:1","Baden-Baden Vogesenstraße","48.7797270721864","8.20830201086769","0480","","","Parent34770"
"de:08211:34770:0:2","Baden-Baden Vogesenstraße","48.7796027625476","8.20830201086769","0480","","","Parent34770"
"de:08211:34771:0:1","Baden-Baden Schwarzwaldstraße","48.7801651132216","8.20552621663937","0480","","","Parent34771"
"de:08211:34771:0:2","Baden-Baden Schwarzwaldstraße","48.7803012603323","8.20543638511094","0480","","","Parent34771"
"de:08211:34772:0:1","Baden-Baden Schußbachstraße","48.7864807664503","8.20848167392453","0480","","","Parent34772"
"de:08211:34772:0:2","Baden-Baden Schußbachstraße","48.7866228151157","8.20870625274559","0480","","","Parent34772"
"de:08211:34774:0:1","Baden-Baden Kurhaus","48.7597684735511","8.23728166193741","0480","","",""
"de:08211:34791:0:1","Baden-Baden Römerweg","48.7841487433775","8.20301093384349","0480","","","Parent34791"
"de:08211:35110:1:1","Baden-Baden Haueneberstein","48.8119779762026","8.20913744408203","0480","","","Parent35110"
"de:08211:35110:2:2","Baden-Baden Haueneberstein","48.8117413478462","8.20890388210813","0480","","","Parent35110"
"de:08211:35113:1:1","Baden-Baden Rebland","48.7339188602316","8.14667758236851","0480","","","Parent35113"
"de:08211:35113:2:2","Baden-Baden Rebland","48.733806287013","8.14653385192303","0480","","","Parent35113"
"de:08211:35113:5:51","Steinbach Rebland","48.7351275252224","8.14551875565183","0480","","","Parent35113"
"de:08211:35113:5:52","Steinbach Rebland","48.7350149547102","8.14537502520635","0480","","","Parent35113"
"de:08212:1:1:1","Karlsruhe Marktplatz","49.0095854501066","8.40461084993365","0100","","","Parent1"
"de:08212:1:11:11","Karlsruhe Marktplatz","49.0096090194779","8.40429643958416","0100","","","Parent1"
"de:08212:1:12:12","Karlsruhe Marktplatz","49.0095206342779","8.40552713152358","0100","","","Parent1"
"de:08212:1:2:2","Karlsruhe Marktplatz","49.0095147419257","8.40556306413495","0100","","","Parent1"
"de:08212:10:1:1","Durlach Untermühlstraße","49.002060357947","8.45506921944967","0100","","","Parent10"
"de:08212:10:1:3","Durlach Untermühlstraße","49.0020898241119","8.45491650585135","0100","","","Parent10"
"de:08212:10:2:2","Durlach Untermühlstraße","49.0018953471012","8.45588668635833","0100","","","Parent10"
"de:08212:10:2:4","Durlach Untermühlstraße","49.0018658808212","8.45604838310949","0100","","","Parent10"
"de:08212:10:21:21","Durlach Untermühlstraße (Ersatzhalt)","49.0022076885974","8.45468294387744","0100","","","Parent10"
"de:08212:10:22:22","Durlach Untermühlstraße (Ersatzhalt)","49.0018835605913","8.45559922546737","0100","","","Parent10"
"de:08212:10000:0:1","Karlsruhe Pappelallee","48.9955891658425","8.3339134370636","0100","","",""
"de:08212:10001:1:1","Karlsruhe Falterweg","48.9976284482503","8.33438954416425","0100","","",""
"de:08212:101:1:1","Karlsruhe Starckstraße","49.0171447538227","8.35286788956116","0100","","","Parent101"
"de:08212:101:2:2","Karlsruhe Starckstraße","49.0164907986247","8.35284992325548","0100","","","Parent101"
"de:08212:102:0:1","Karlsruhe Vogesenbrücke","49.0091081679368","8.3555628354139","0100","","","Parent102"
"de:08212:102:0:2","Karlsruhe Vogesenbrücke","49.0097504354716","8.35476333481092","0100","","","Parent102"
"de:08212:103:1:1","Karlsruhe Mühlburg West","49.0204792025874","8.3505682024335","0100","","","Parent103"
"de:08212:103:2:2","Karlsruhe Mühlburg West","49.0201669756983","8.35084668017161","0100","","","Parent103"
"de:08212:104:1:1","Knielingen Siemens","49.0252094948641","8.3463371374447","0100","","","Parent104"
"de:08212:104:2:2","Knielingen Siemens","49.0252448378214","8.34625628906912","0100","","","Parent104"
"de:08212:105:1:1","Knielingen Herweghstraße","49.0306696841209","8.34096521204492","0100","","","Parent105"
"de:08212:105:11:11","Knielingen Herweghstraße","49.0311232003974","8.341531150674","0100","","","Parent105"
"de:08212:105:12:12","Knielingen Herweghstraße","49.0310878616153","8.34149521806263","0100","","","Parent105"
"de:08212:105:2:2","Knielingen Herweghstraße","49.0301337050098","8.34145030229841","0100","","","Parent105"
"de:08212:106:1:1","Knielingen Eggensteiner Straße","49.0335085101601","8.33821636727513","0100","","","Parent106"
"de:08212:106:11:11","Knielingen Eggensteiner Straße","49.0339384427179","8.33818941781661","0100","","","Parent106"
"de:08212:106:2:2","Knielingen Eggensteiner Straße","49.0331904754663","8.33846789555472","0100","","","Parent106"
"de:08212:107:1:1","Knielingen Rheinbergstraße","49.0353401148417","8.33615922527421","0100","","","Parent107"
"de:08212:107:12:12","Knielingen Rheinbergstraße","49.0353283362489","8.33631193887254","0100","","","Parent107"
"de:08212:107:2:2","Knielingen Rheinbergstraße","49.0349160837441","8.33671618075045","0100","","","Parent107"
"de:08212:11:1:1","Durlach Auer Str./Dr. Schwabe","49.0005163065131","8.46319897277208","0100","","","Parent11"
"de:08212:11:2:2","Durlach Auer Str./Dr. Schwabe","49.0003925445931","8.46369304617842","0100","","","Parent11"
"de:08212:11:21:21","Durlach, Auer Straße/Dr. Willmar Schwabe","49.0005752406526","8.46340558528746","0100","","","Parent11"
"de:08212:11:22:22","Durlach, Auer Straße/Dr. Willmar Schwabe","49.0004220117448","8.46296541079818","0100","","","Parent11"
"de:08212:1101:1:1","Karlsruhe St. Klinikum/Moltke.","49.0157131109897","8.37517305806896","0100","","","Parent1101"
"de:08212:1101:2:2","Karlsruhe St. Klinikum/Moltke.","49.0153772875731","8.37510119284622","0100","","","Parent1101"
"de:08212:1101:3:3","Karlsruhe St. Klinikum/Moltke.","49.0152299958861","8.37420287756197","0100","","","Parent1101"
"de:08212:1101:4:4","Karlsruhe St. Klinikum/Moltke.","49.0151828624543","8.37467898466262","0100","","","Parent1101"
"de:08212:1103:1:1","Karlsruhe Knielinger Allee","49.0188473536288","8.37540662004286","0100","","","Parent1103"
"de:08212:1103:2:2","Karlsruhe Knielinger Allee","49.018900374833","8.37531678851443","0100","","","Parent1103"
"de:08212:1104:1:1","Karlsruhe August-Bebel-Straße","49.0241609757111","8.3757749293094","0100","","","Parent1104"
"de:08212:1104:11:11","Karlsruhe August-Bebel-Straße","49.0243376939702","8.37536170427865","0100","","","Parent1104"
"de:08212:1104:2:2","Karlsruhe August-Bebel-Straße","49.023919459742","8.37570306408666","0100","","","Parent1104"
"de:08212:1105:1:1","Karlsruhe Kurt-Schumacher-Str.","49.0302809525936","8.37629595217426","0100","","","Parent1105"
"de:08212:1105:2:2","Karlsruhe Kurt-Schumacher-Str.","49.0299805670603","8.37622408695152","0100","","","Parent1105"
"de:08212:1106:1:1","Karlsruhe Haus Bethlehem","49.0332317023005","8.37662832882943","0100","","","Parent1106"
"de:08212:1106:2:2","Karlsruhe Haus Bethlehem","49.0333494930673","8.37659239621806","0100","","","Parent1106"
"de:08212:1110:1:1","Neureut Welschneureuter Straße","49.0448150891013","8.37470593412115","0100","","","Parent1110"
"de:08212:1110:11:11","Neureut Welschneureuter Straße","49.0445501205713","8.37344829272321","0100","","","Parent1110"
"de:08212:1110:12:12","Neureut Welschneureuter Straße","49.0446619963451","8.37335846119478","0100","","","Parent1110"
"de:08212:1110:2:2","Neureut Welschneureuter Straße","49.0444264681075","8.37394236612954","0100","","","Parent1110"
"de:08212:1111:1:1","Neureut Bärenweg","49.0470113294531","8.37859563930193","0100","","","Parent1111"
"de:08212:1111:2:2","Neureut Bärenweg","49.0471879665537","8.37877530235878","0100","","","Parent1111"
"de:08212:1111:3:3","Neureut Bärenweg","49.0470937601782","8.37887411704004","0100","","","Parent1111"
"de:08212:1111:3:4","Neureut Bärenweg","49.0470996480818","8.37891903280426","0100","","","Parent1111"
"de:08212:1114:1:1","Neureut Adolf-Ehrmann-Bad","49.0508501010674","8.38527910501671","0100","","","Parent1114"
"de:08212:1114:2:2","Neureut Adolf-Ehrmann-Bad","49.0504026521517","8.38443468864952","0100","","","Parent1114"
"de:08212:1115:1:1","Neureut Kirchfeld","49.0530048644537","8.38907897866906","0100","","","Parent1115"
"de:08212:1115:2:2","Neureut Kirchfeld","49.0526339692136","8.38831541067745","0100","","","Parent1115"
"de:08212:12:1:1","Karlsruhe Duale Hochschule","49.0272534546439","8.38618640345379","0100","","","Parent12"
"de:08212:12:11:11","Karlsruhe Duale Hochschule","49.0270296245254","8.38642894858054","0100","","","Parent12"
"de:08212:12:12:12","Karlsruhe Duale Hochschule","49.0266349742322","8.38591690886852","0100","","","Parent12"
"de:08212:12:2:2","Karlsruhe Duale Hochschule","49.0265701806013","8.3859977572441","0100","","","Parent12"
"de:08212:1201:1:1","Karlsruhe Albtalbahnhof","48.993555694189","8.39596007374637","0100","","","Parent1201"
"de:08212:1201:2:A","Karlsruhe Albtalbahnhof","48.9938091459087","8.39546600034004","0100","","","Parent1201"
"de:08212:1201:3:2","Karlsruhe Albtalbahnhof","48.993785569059","8.39605888842764","0100","","","Parent1201"
"de:08212:1201:3:3","Karlsruhe Albtalbahnhof","48.9934260207175","8.39609482103901","0100","","","Parent1201"
"de:08212:1201:4:4","Karlsruhe Albtalbahnhof","48.993744309545","8.39619363572028","0100","","","Parent1201"
"de:08212:1206:1:1","Karlsruhe Dammerstock","48.9846840716278","8.40364066942666","0100","","","Parent1206"
"de:08212:1206:12:12","Karlsruhe Dammerstock","48.9848491394917","8.40312862971465","0100","","","Parent1206"
"de:08212:1206:2:2","Karlsruhe Dammerstock","48.9842124461467","8.40361371996814","0100","","","Parent1206"
"de:08212:1207:0:1","Karlsruhe Schloss Rüppurr","48.9814710346662","8.40379338302499","0100","","","Parent1207"
"de:08212:1207:0:11","Karlsruhe Schloss Rüppurr","48.9810465445673","8.40365863573235","0100","","","Parent1207"
"de:08212:1207:0:2","Karlsruhe Schloss Rüppurr","48.9808755683672","8.40381134933067","0100","","","Parent1207"
"de:08212:1208:0:1","Rüppurr Ostendorfplatz","48.9759877593014","8.40664104247604","0100","","","Parent1208"
"de:08212:1208:0:2","Rüppurr Ostendorfplatz","48.975445294972","8.40654222779478","0100","","","Parent1208"
"de:08212:1209:0:1","Rüppurr Tulpenstraße","48.9713412431359","8.40405389445742","0100","","","Parent1209"
"de:08212:1209:0:2","Rüppurr Tulpenstraße","48.9708812852388","8.40404491130458","0100","","","Parent1209"
"de:08212:1210:0:1","Rüppurr Battstraße","48.9657035177336","8.40477254668481","0100","","","Parent1210"
"de:08212:1210:0:11","Rüppurr Battstraße","48.9656858251233","8.40440423741827","0100","","","Parent1210"
"de:08212:1210:0:2","Rüppurr Battstraße","48.9649250369454","8.40482644560187","0100","","","Parent1210"
"de:08212:1211:0:11","Karlsruhe Erlenweg","48.9826560503908","8.40870716762981","0100","","",""
"de:08212:1213:11:11","Rüppurr Heinrich-Heine-Ring","48.9663227551367","8.40703630120111","0100","","",""
"de:08212:1214:11:11","Rüppurr Hegaustraße","48.9667296783861","8.41188720373603","0100","","",""
"de:08212:1215:11:11","Rüppurr Prinzenweg","48.968687581506","8.41446536860181","0100","","",""
"de:08212:1216:11:11","Rüppurr Märchenring","48.9703033834045","8.41618115079472","0100","","",""
"de:08212:13:1:1","Neureut-Heide","49.0364885142469","8.38813574762061","0100","","","Parent13"
"de:08212:13:2:2","Neureut-Heide","49.0361528310091","8.38798303402228","0100","","","Parent13"
"de:08212:1510:1:1","Durlach Hubstraße","49.0072225640065","8.47253246857538","0100","","","Parent1510"
"de:08212:1510:2:2","Durlach Hubstraße","49.0067982932814","8.47155330491556","0100","","","Parent1510"
"de:08212:1521:1:1","Grötzingen","49.0059968831597","8.49313982119595","0100","","","Parent1521"
"de:08212:1521:2:11","Grötzingen Bahnhof","49.0061206311529","8.49339134947554","0100","","","Parent1521"
"de:08212:1521:2:12","Grötzingen Bahnhof","49.0061206311529","8.49339134947554","0100","","","Parent1521"
"de:08212:1521:3:2","Grötzingen","49.0060970601302","8.49271761301236","0100","","","Parent1521"
"de:08212:1521:3:3","Grötzingen","49.0060381325249","8.49261879833109","0100","","","Parent1521"
"de:08212:1521:4:13","Grötzingen Bahnhof","49.0067629372244","8.49280744454078","0100","","","Parent1521"
"de:08212:1525:1:1","Grötzingen Oberausstraße","49.0051836744111","8.50391062145405","0100","","","Parent1525"
"de:08212:1525:2:2","Grötzingen Oberausstraße","49.0052956387228","8.5036051942574","0100","","","Parent1525"
"de:08212:1527:0:1","KA-Grötzingen Hl.-Kreuz-Kirche","49.0044234890064","8.50382977307846","0100","","","Parent1527"
"de:08212:1527:0:2","KA-Grötzingen Hl.-Kreuz-Kirche","49.0044883114702","8.50380282361994","0100","","","Parent1527"
"de:08212:16:1:1","Durlach Friedrichschule","48.9993376090784","8.46855293186618","0100","","","Parent16"
"de:08212:16:1:11","Durlach Friedrichschule","48.9993317155211","8.46860683078323","0100","","","Parent16"
"de:08212:16:2:12","Durlach Friedrichschule","48.9992904606008","8.46887632536851","0100","","","Parent16"
"de:08212:16:2:2","Durlach Friedrichschule","48.9992786734744","8.46892124113272","0100","","","Parent16"
"de:08212:1600:1:1","Grötzingen Krappmühlenweg","49.0058672420751","8.51269614493396","0100","","","Parent1600"
"de:08212:1600:1:2","Grötzingen Krappmühlenweg","49.005873134859","8.5120493579293","0100","","","Parent1600"
"de:08212:1600:2:21","Grötzingen Krappmühlenweg","49.0052543887425","8.51371124120515","0100","","","Parent1600"
"de:08212:1600:2:22","Grötzingen Krappmühlenweg","49.005413495621","8.51308242050618","0100","","","Parent1600"
"de:08212:1644:1:1","KA-Grötzingen Im Sonnental","49.001818734737","8.50293145779422","0100","","","Parent1644"
"de:08212:1644:1:2","KA-Grötzingen Im Sonnental","49.0017892684116","8.50287755887716","0100","","","Parent1644"
"de:08212:1644:1:3","KA-Grötzingen Im Sonnental","49.0017126558842","8.50280569365442","0100","","","Parent1644"
"de:08212:17:1:1","Durlach Schlossplatz","48.9991254405777","8.47375417736195","0100","","","Parent17"
"de:08212:17:1:13","Durlach Schlossplatz","48.9991254405777","8.47372722790343","0100","","","Parent17"
"de:08212:17:11:11","Durlach Schlossplatz","48.9990252495827","8.47448181274219","0100","","","Parent17"
"de:08212:17:2:14","Durlach Schlossplatz","48.9990959726589","8.47373621105627","0100","","","Parent17"
"de:08212:17:2:2","Durlach Schlossplatz","48.9991372277404","8.4742931665325","0100","","","Parent17"
"de:08212:1700:1:1","Maxau","49.035982043931","8.30783534436198","0100","","","Parent1700"
"de:08212:1700:2:2","Maxau","49.0360173792366","8.30708974267606","0100","","","Parent1700"
"de:08212:18:1:1","Durlach Turmberg","48.9998739198697","8.47851524836845","0100","","","Parent18"
"de:08212:18:1:2","Durlach Turmberg","48.999897493838","8.47855118097982","0100","","","Parent18"
"de:08212:18:1:3","Durlach Turmberg","48.9999328547694","8.47823677063034","0100","","","Parent18"
"de:08212:18:1:4","Durlach Turmberg","49.0002511020223","8.47787744451664","0100","","","Parent18"
"de:08212:18:1:5","Durlach Turmberg","49.0001273394434","8.4781649054076","0100","","","Parent18"
"de:08212:18:1:6","Durlach Turmberg","49.0000094700346","8.47844338314571","0100","","","Parent18"
"de:08212:18:12:9","Durlach Turmberg","48.9994377994451","8.47868592827246","0100","","","Parent18"
"de:08212:18:13:12","Durlach Turmberg","49.0002098478635","8.47808405703201","0100","","","Parent18"
"de:08212:19:1:1","Durlach Karl-Weysser-Straße","48.9986775263306","8.47671861779996","0100","","","Parent19"
"de:08212:19:11:11","Durlach Karl-Weysser-Straße","48.9985655471395","8.47671861779996","0100","","","Parent19"
"de:08212:2:1:1","KA Kronenplatz (Kaiserstr.)","49.0094027871005","8.40845563935022","0100","","","Parent2"
"de:08212:2:11:11","KA Kronenplatz (Kaiserstr.)","49.0094027871005","8.40848258880874","0100","","","Parent2"
"de:08212:2:12:12","KA Kronenplatz (Kaiserstr.)","49.0093438634073","8.40933598832878","0100","","","Parent2"
"de:08212:2:2:2","KA Kronenplatz (Kaiserstr.)","49.0093379710341","8.40937192094015","0100","","","Parent2"
"de:08212:2002:0:1","Durlach Friedhof","49.0024021643884","8.48320445415221","0100","","","Parent2002"
"de:08212:2002:0:2","Durlach Friedhof","49.002602532591","8.48329428568063","0100","","","Parent2002"
"de:08212:2003:0:1","KA-Grötzingen Augustenburg","49.0042938438256","8.49857462866563","0100","","","Parent2003"
"de:08212:2003:0:2","KA-Grötzingen Augustenburg","49.0043350946016","8.49852072974858","0100","","","Parent2003"
"de:08212:2004:0:1","Durlach Neßlerstraße","49.0024198439681","8.48697737834603","0100","","",""
"de:08212:201:1:1","Karlsruhe Eckenerstraße","49.0051129599793","8.34956208931514","0100","","","Parent201"
"de:08212:201:2:2","Karlsruhe Eckenerstraße","49.0053486743615","8.34993938173453","0100","","","Parent201"
"de:08212:201:3:3","Karlsruhe Eckenerstraße","49.005902598768","8.34945429148103","0100","","","Parent201"
"de:08212:201:4:4","Karlsruhe Eckenerstraße","49.005690458234","8.34980463444189","0100","","","Parent201"
"de:08212:2016:1:1","KA-Grötzingen LTZ Augustenberg","49.003156487544","8.49261879833109","0100","","","Parent2016"
"de:08212:2016:1:2","KA-Grötzingen LTZ Augustenberg","49.0031623806487","8.49260981517825","0100","","","Parent2016"
"de:08212:203:1:1","Karlsruhe Rheinhafenstraße","49.0013885246564","8.34489983298991","0100","","","Parent203"
"de:08212:203:2:2","Karlsruhe Rheinhafenstraße","49.0016772962164","8.34522322649224","0100","","","Parent203"
"de:08212:204:1:1","Daxlanden Thomas-Mann-Straße","48.9988130797515","8.34098317835061","0100","","","Parent204"
"de:08212:204:2:2","Daxlanden Thomas-Mann-Straße","48.9990429303612","8.34136047076999","0100","","","Parent204"
"de:08212:205:1:1","Daxlanden Karl-Delisle-Straße","48.9959074408493","8.33792890638418","0100","","","Parent205"
"de:08212:205:11:11","Daxlanden Karl-Delisle-Straße","48.9961255169948","8.33845891240188","0100","","","Parent205"
"de:08212:205:2:2","Daxlanden Karl-Delisle-Straße","48.9963023347903","8.3383780640263","0100","","","Parent205"
"de:08212:206:1:1","Daxlanden Dornröschenweg","48.9925182969661","8.33506328062744","0100","","","Parent206"
"de:08212:206:2:2","Daxlanden Dornröschenweg","48.9931254127354","8.33556633718661","0100","","","Parent206"
"de:08212:208:3:3","Daxlanden Hammäcker","48.9914573001893","8.33417394849603","0100","","",""
"de:08212:209:1:1","Daxlanden Nussbaumweg","48.9886632339161","8.33261986305429","0100","","","Parent209"
"de:08212:209:2:2","Daxlanden Nussbaumweg","48.9891525015629","8.33306902069641","0100","","","Parent209"
"de:08212:2102:0:1","KA-Grötzingen Emil-Arheit-Halle","49.0225940463628","8.49685884647272","0100","","","Parent2102"
"de:08212:2103:0:1","KA-Grötzingen Fröbelstraße","49.0077057568182","8.49103776343082","0100","","","Parent2103"
"de:08212:2103:0:2","KA-Grötzingen Fröbelstraße","49.0077352196428","8.4911814938763","0100","","","Parent2103"
"de:08212:2104:1:1","KA-Grötzingen Rathaus","49.0075820127643","8.49523289580824","0100","","","Parent2104"
"de:08212:2104:2:2","KA-Grötzingen Rathaus","49.0077234345151","8.49620307631523","0100","","","Parent2104"
"de:08212:2104:3:3","KA-Grötzingen Rathaus","49.0075054091482","8.4949274686116","0100","","","Parent2104"
"de:08212:2105:0:1","KA-Grötzingen K.-Leopold-Str.","49.0108346114121","8.49502628329287","0100","","","Parent2105"
"de:08212:2105:0:2","KA-Grötzingen K.-Leopold-Str.","49.0109053177186","8.49490950230591","0100","","","Parent2105"
"de:08212:2106:0:1","KA-Grötzingen Nord","49.0150768120694","8.49419983323136","0100","","","Parent2106"
"de:08212:2106:0:2","KA-Grötzingen Nord","49.0146172577909","8.49413695116146","0100","","","Parent2106"
"de:08212:2106:0:4","KA-Grötzingen Nord","49.0146702835011","8.49421779953705","0100","","","Parent2106"
"de:08212:2107:0:1","KA-Grötzingen Büchelbergstraße","49.0056963510388","8.49564612083899","0100","","","Parent2107"
"de:08212:2107:0:2","KA-Grötzingen Büchelbergstraße","49.0056433157703","8.49563713768615","0100","","","Parent2107"
"de:08212:2108:0:1","KA-Grötzingen Staigstraße","49.0028618314212","8.49789190904961","0100","","","Parent2108"
"de:08212:2108:0:2","KA-Grötzingen Staigstraße","49.0029384421808","8.49786495959108","0100","","","Parent2108"
"de:08212:2109:0:1","KA-Grötzingen Gustav-Hofmann-Str.","49.0040227664478","8.50657861784825","0100","","","Parent2109"
"de:08212:2109:0:2","KA-Grötzingen Gustav-Hofmann-Str.","49.0040227664478","8.50657861784825","0100","","","Parent2109"
"de:08212:211:0:1","Karlsruhe Messe","48.9816773827139","8.32856846112235","0100","","","Parent211"
"de:08212:211:0:2","Karlsruhe Messe","48.9816773827139","8.32856846112235","0100","","","Parent211"
"de:08212:2110:2:3","KA-Grötzingen Ringelberghohl","49.0032272047541","8.50254518222199","0100","","","Parent2110"
"de:08212:2110:2:4","KA-Grötzingen Ringelberghohl","49.0032272047541","8.50257213168052","0100","","","Parent2110"
"de:08212:2111:1:1","KA-Grötzingen Eisenbahnstraße","49.0051070671054","8.50112584407289","0100","","","Parent2111"
"de:08212:2112:1:1","KA-Grötzingen An der Pfinz","49.0059261698826","8.50196127728723","0100","","","Parent2112"
"de:08212:2222:0:1","KA-Stupferich Efeustraße","48.956655877328","8.51252546502995","0100","","","Parent2222"
"de:08212:2222:0:2","KA-Stupferich Efeustraße","48.9566381815079","8.51261529655837","0100","","","Parent2222"
"de:08212:23:1:1","Neureut Rosmarinweg","49.035346004137","8.3858270773401","0100","","","Parent23"
"de:08212:23:1:2","Neureut Rosmarinweg","49.035505014848","8.38561148167188","0100","","","Parent23"
"de:08212:2302:0:1","Durlach Dürrbachstraße","48.9947404225492","8.48212647581111","0100","","","Parent2302"
"de:08212:2302:0:2","Durlach Dürrbachstraße","48.9948170458014","8.48200071167132","0100","","","Parent2302"
"de:08212:2303:0:1","Durlach Lerchenberg","48.9915810843109","8.48823501974398","0100","","","Parent2303"
"de:08212:2303:0:2","Durlach Lerchenberg","48.9914278277341","8.48825298604966","0100","","","Parent2303"
"de:08212:2304:0:1","Durlach Eisenhafengrund","48.9885217580384","8.49128929171041","0100","","","Parent2304"
"de:08212:2304:0:2","Durlach Eisenhafengrund","48.988781130174","8.4912443759462","0100","","","Parent2304"
"de:08212:2305:0:1","Durlach Thomashof","48.9672604428514","8.50442266116606","0100","","","Parent2305"
"de:08212:2305:0:2","Thomashof","48.9676614611451","8.50427893072058","0100","","","Parent2305"
"de:08212:2306:0:1","KA-Stupferich Gerberastraße","48.9563314529623","8.50737811845123","0100","","","Parent2306"
"de:08212:2306:0:2","KA-Stupferich Gerberastraße","48.9560837092986","8.50769252880071","0100","","","Parent2306"
"de:08212:2307:0:1","KA-Stupferich Karlsbader Str.","48.9539719395562","8.50789914131609","0100","","","Parent2307"
"de:08212:2307:0:2","KA-Stupferich Karlsbader Str.","48.9542255926011","8.50871660822475","0100","","","Parent2307"
"de:08212:2307:0:3","KA-Stupferich Karlsbader Str.","48.953954242784","8.50803388860873","0100","","","Parent2307"
"de:08212:231:1:1","Hagsfeld Süd","49.0242198818672","8.44912237226797","0100","","","Parent231"
"de:08212:231:11:11","Hagsfeld Süd","49.0248678449823","8.45000272124653","0100","","","Parent231"
"de:08212:231:12:12","Hagsfeld Süd","49.0250975753336","8.44977814242547","0100","","","Parent231"
"de:08212:231:2:2","Hagsfeld Süd","49.0246557852552","8.4499128897181","0100","","","Parent231"
"de:08212:233:1:1","Hagsfeld Geroldsäcker","49.0329077762537","8.45535668034062","0100","","","Parent233"
"de:08212:233:2:2","Hagsfeld Geroldsäcker","49.0327723156451","8.45536566349347","0100","","","Parent233"
"de:08212:237:11:11","Knielingen Sudetenstraße","49.0305106579541","8.34529509171498","0100","","","Parent237"
"de:08212:237:12:12","Knielingen Sudetenstraße","49.0304517592448","8.34507949604676","0100","","","Parent237"
"de:08212:238:11:11","Knielingen Pionierstraße","49.0333730511872","8.34714562120053","0100","","","Parent238"
"de:08212:238:12:12","Knielingen Pionierstraße","49.0333141558666","8.3471815538119","0100","","","Parent238"
"de:08212:238:13:13","Knielingen Pionierstraße","49.0326545235117","8.34719952011758","0100","","","Parent238"
"de:08212:238:14:14","Knielingen Pionierstraße","49.0334024988214","8.34780139135802","0100","","","Parent238"
"de:08212:239:11:11","Knielingen Egon-Eiermann-Allee","49.0351928822313","8.35120600628531","0100","","","Parent239"
"de:08212:239:12:12","Knielingen Egon-Eiermann-Allee","49.0350515385154","8.35129583781374","0100","","","Parent239"
"de:08212:239:13:13","Knielingen Egon-Eiermann-Allee","49.0359525978238","8.35032565730675","0100","","","Parent239"
"de:08212:239:14:14","Knielingen Egon-Eiermann-Allee","49.0356522465345","8.35037057307096","0100","","","Parent239"
"de:08212:240:11:11","Knielingen Nord","49.0386026776629","8.34684019400388","0100","","","Parent240"
"de:08212:240:12:12","Knielingen Nord","49.0378606695398","8.3474779978557","0100","","","Parent240"
"de:08212:26:11:21","Karlsruhe Rheinhafen Nord","49.0171035136586","8.32049260671699","0100","","","Parent26"
"de:08212:3:1:1","Karlsruhe Durlacher Tor/KIT","49.0089431804436","8.41781608461205","0100","","","Parent3"
"de:08212:3:11:11","Karlsruhe Durlacher Tor/KIT","49.0091906614783","8.41792388244616","0100","","","Parent3"
"de:08212:3:11:13","Karlsruhe Durlacher Tor/KIT","49.0093910023675","8.41836405693543","0100","","","Parent3"
"de:08212:3:2:2","Karlsruhe Durlacher Tor/KIT","49.0087310528633","8.41880423142471","0100","","","Parent3"
"de:08212:3:3:3","Karlsruhe Durlacher Tor/KIT","49.0092967244024","8.41788794983479","0100","","","Parent3"
"de:08212:3:4:4","Karlsruhe Durlacher Tor/KIT","49.0094793877976","8.41849880422807","0100","","","Parent3"
"de:08212:3002:0:1","Karlsruhe Studentenhaus","49.0113766905291","8.41814846126722","0100","","","Parent3002"
"de:08212:3002:0:2","Karlsruhe Studentenhaus","49.0110231613396","8.417932865599","0100","","","Parent3002"
"de:08212:3003:0:1","Karlsruhe Pastor-Felke-Straße","49.0158839676479","8.42219088004632","0100","","","Parent3003"
"de:08212:3003:0:2","Karlsruhe Pastor-Felke-Straße","49.0158486180426","8.42217291374063","0100","","","Parent3003"
"de:08212:3004:0:1","Karlsruhe Büchiger Allee","49.01976637984","8.42132849737344","0100","","","Parent3004"
"de:08212:3004:0:2","Karlsruhe Büchiger Allee","49.0196132099832","8.42132849737344","0100","","","Parent3004"
"de:08212:3005:0:1","Karlsruhe Rintheimer Querallee","49.0255275805765","8.42459836500809","0100","","","Parent3005"
"de:08212:3005:0:2","Karlsruhe Rintheimer Querallee","49.0252566188016","8.42403242637902","0100","","","Parent3005"
"de:08212:3008:0:1","Waldstadt Breslauer Straße","49.0288084571452","8.43032961652157","0100","","","Parent3008"
"de:08212:3008:0:2","Waldstadt Breslauer Straße","49.0290558394262","8.43047334696705","0100","","","Parent3008"
"de:08212:3009:0:1","Waldstadt Schneidemühler Str.","49.0352046608562","8.43147047693256","0100","","","Parent3009"
"de:08212:3009:0:2","Waldstadt Schneidemühler Str.","49.0349043050509","8.43091352145633","0100","","","Parent3009"
"de:08212:3010:0:1","Waldstadt Kolberger Straße","49.0385791220195","8.43527035058492","0100","","","Parent3010"
"de:08212:3010:0:2","Waldstadt Kolberger Straße","49.0382552307928","8.43477627717858","0100","","","Parent3010"
"de:08212:3011:0:1","Waldstadt Elbinger Straße West","49.0412113961263","8.43842343723261","0100","","","Parent3011"
"de:08212:3011:0:2","Waldstadt Elbinger Straße West","49.0409287424962","8.43798326274334","0100","","","Parent3011"
"de:08212:3012:1:1","Waldstadt Europäische Schule","49.0447974245765","8.44679573568177","0100","","","Parent3012"
"de:08212:3012:11:11","Waldstadt Europäische Schule","49.0453980148975","8.44764015204897","0100","","","Parent3012"
"de:08212:3012:2:2","Waldstadt Europäische Schule","49.0453391338142","8.44729879224095","0100","","","Parent3012"
"de:08212:3013:1:1","Hagsfeld Reitschulschlag","49.0425245367157","8.46080047096315","0100","","","Parent3013"
"de:08212:3013:2:2","Hagsfeld Reitschulschlag","49.043260586904","8.46087233618589","0100","","","Parent3013"
"de:08212:3014:0:1","Karlsruhe Emil-Gött-Straße","49.0132974885846","8.42062781145173","0100","","","Parent3014"
"de:08212:3014:0:2","Karlsruhe Emil-Gött-Straße","49.0133799751851","8.42037628317214","0100","","","Parent3014"
"de:08212:3015:1:3","Hagsfeld Reitschul. (Schleife)","49.0440849501816","8.46106996554842","0100","","",""
"de:08212:3017:1:1","Waldstadt Elbinger Straße Ost","49.0407933037291","8.4506944240154","0100","","","Parent3017"
"de:08212:3017:2:2","Waldstadt Elbinger Straße Ost","49.0406460872596","8.45049679465286","0100","","","Parent3017"
"de:08212:302:1:1","Daxlanden Mauerweg","49.0078059303509","8.33900688472527","0100","","","Parent302"
"de:08212:302:12:12","Daxlanden Mauerweg","49.0077705750094","8.33958180650719","0100","","","Parent302"
"de:08212:302:2:2","Daxlanden Mauerweg","49.0077116493845","8.33951892443729","0100","","","Parent302"
"de:08212:303:1:1","Daxlanden Ankerstraße","49.0064918732872","8.33443445992847","0100","","","Parent303"
"de:08212:303:12:12","Daxlanden Ankerstraße","49.0067393665058","8.33510819639165","0100","","","Parent303"
"de:08212:303:2:2","Daxlanden Ankerstraße","49.0067216884596","8.33481175234785","0100","","","Parent303"
"de:08212:304:1:1","Daxlanden Kirchplatz","49.005413495621","8.3317754466871","0100","","","Parent304"
"de:08212:304:2:2","Daxlanden Kirchplatz","49.0052308173099","8.3323683347747","0100","","","Parent304"
"de:08212:305:1:1","Daxlanden Hammweg","49.0039049062581","8.32670894848396","0100","","","Parent305"
"de:08212:305:2:2","Daxlanden Hammweg","49.0034923933975","8.32827201707855","0100","","","Parent305"
"de:08212:306:1:1","Daxlanden Waidweg","49.0043822383037","8.32210957422863","0100","","","Parent306"
"de:08212:306:2:2","Daxlanden Waidweg","49.0042879508548","8.3227383949276","0100","","","Parent306"
"de:08212:306:3:3","Daxlanden Waidweg","49.0046768854307","8.32237008566106","0100","","","Parent306"
"de:08212:307:1:1","Daxlanden Altrheinbrücke","49.0008581235515","8.31190471259961","0100","","","Parent307"
"de:08212:307:2:2","Daxlanden Altrheinbrücke","49.000834550038","8.31194064521098","0100","","","Parent307"
"de:08212:308:3:3","Daxlanden Rappenwört","48.9989250583861","8.29537571136951","0100","","","Parent308"
"de:08212:31:1:1","Karlsruhe Europaplatz/Postgal. (Kaiser)","49.0100862968467","8.3935525887846","0100","","","Parent31"
"de:08212:31:11:11","Karlsruhe Europaplatz/Postgal. (Kaiserstr.)","49.0100509431244","8.39454073559727","0100","","","Parent31"
"de:08212:31:2:2","Karlsruhe Europaplatz/Postgal. (Kaiser)","49.01002148167","8.39438802199895","0100","","","Parent31"
"de:08212:310:1:1","Karlsruhe Dunantstraße","49.0114591803121","8.43575544083841","0100","","","Parent310"
"de:08212:310:2:2","Karlsruhe Dunantstraße","49.0114591803121","8.43631239631464","0100","","","Parent310"
"de:08212:3102:1:1","Hagsfeld Bahnhof","49.0272298936262","8.45373072967614","0100","","","Parent3102"
"de:08212:3102:11:11","Hagsfeld Bahnhof","49.0269766119814","8.45410802209553","0100","","","Parent3102"
"de:08212:3102:12:12","Hagsfeld Bahnhof","49.0269707216953","8.45430565145806","0100","","","Parent3102"
"de:08212:3102:2:2","Hagsfeld Bahnhof","49.0277187824574","8.45394632534436","0100","","","Parent3102"
"de:08212:3103:0:1","Hagsfeld Oberdorfstraße","49.0282724579837","8.4559226189697","0100","","","Parent3103"
"de:08212:3103:0:2","Hagsfeld Oberdorfstraße","49.0282547875833","8.45581482113559","0100","","","Parent3103"
"de:08212:3104:0:1","Hagsfeld Julius-Bender-Straße","49.0290793995792","8.45676703533689","0100","","","Parent3104"
"de:08212:3104:0:2","Hagsfeld Julius-Bender-Straße","49.0293150004965","8.45711737829775","0100","","","Parent3104"
"de:08212:3105:0:1","Hagsfeld Pfizer","49.0235601289359","8.45326360572834","0100","","","Parent3105"
"de:08212:3105:0:2","Hagsfeld Pfizer","49.0235954730647","8.45324563942265","0100","","","Parent3105"
"de:08212:3106:0:1","Hagsfeld An der Tagweide","49.0210270676776","8.45644364183456","0100","","","Parent3106"
"de:08212:3106:0:2","Hagsfeld An der Tagweide","49.0210800865599","8.45647059129309","0100","","","Parent3106"
"de:08212:3106:0:3","Hagsfeld An der Tagweide","49.0208208825987","8.45785399683083","0100","","","Parent3106"
"de:08212:3107:1:1","Hagsfeld Printzstraße","49.0237015053004","8.46307320863229","0100","","","Parent3107"
"de:08212:3107:1:2","Hagsfeld Printzstraße","49.0237486306659","8.46301930971523","0100","","","Parent3107"
"de:08212:3107:2:3","Hagsfeld Printzstraße","49.0244496152097","8.46141132535644","0100","","","Parent3107"
"de:08212:3108:0:1","Hagsfeld Neue Wiesen","49.0205263310043","8.46097115086715","0100","","","Parent3108"
"de:08212:3108:0:2","Hagsfeld Neue Wiesen","49.0205086578532","8.46099810032568","0100","","","Parent3108"
"de:08212:3109:0:1","Hagsfeld Storrenacker Süd","49.0190005258424","8.46699884642444","0100","","","Parent3109"
"de:08212:3109:0:2","Hagsfeld Storrenacker Süd","49.019018199529","8.4669269812017","0100","","","Parent3109"
"de:08212:3110:0:1","Hagsfeld Storrenacker Mitte","49.0209328117475","8.468049875307","0100","","","Parent3110"
"de:08212:3110:0:2","Hagsfeld Storrenacker Mitte","49.0209328117475","8.468049875307","0100","","","Parent3110"
"de:08212:3111:0:1","Hagsfeld Storrenacker Nord","49.0252683997791","8.47052024233867","0100","","","Parent3111"
"de:08212:3111:0:2","Hagsfeld Storrenacker Nord","49.0252742902667","8.4704843097273","0100","","","Parent3111"
"de:08212:3112:0:1","Durlach Auf der Breit","49.0207442993519","8.47791337712801","0100","","","Parent3112"
"de:08212:3112:0:2","Durlach Auf der Breit","49.0208091005684","8.47819185486612","0100","","","Parent3112"
"de:08212:3114:0:1","Durlach Ochsentorstraße","49.0012706582323","8.4732780702613","0100","","","Parent3114"
"de:08212:3114:0:2","Durlach Ochsentorstraße","49.0012647649038","8.47335891863689","0100","","","Parent3114"
"de:08212:3115:0:1","Hagsfeld Nord","49.0346746199761","8.46011775134712","0100","","","Parent3115"
"de:08212:3115:0:2","Hagsfeld Nord","49.0348748583057","8.46028843125113","0100","","","Parent3115"
"de:08212:3116:0:1","Hagsfeld Schwetzinger Straße","49.0309759553063","8.45890502571339","0100","","","Parent3116"
"de:08212:3116:0:2","Hagsfeld Schwetzinger Straße","49.0311114208062","8.4589499414776","0100","","","Parent3116"
"de:08212:3117:0:1","Hagsfeld Elfmorgenbruch","49.0197428152773","8.46058487529493","0100","","","Parent3117"
"de:08212:3117:0:2","Hagsfeld Elfmorgenbruch","49.0198900936109","8.46037826277955","0100","","","Parent3117"
"de:08212:3118:0:1","KA-Grötzingen Weidbruch","49.0339325532559","8.47374519420911","0100","","","Parent3118"
"de:08212:3118:0:2","KA-Grötzingen Weidbruch","49.033767648037","8.47361943006932","0100","","","Parent3118"
"de:08212:3119:0:1","Hagsfeld Mona","49.0214983446505","8.46873259492303","0100","","",""
"de:08212:3120:0:2","Durlach An der Fayence","49.0015947902273","8.47058312440857","0100","","","Parent3120"
"de:08212:3120:0:3","Durlach An der Fayence","49.0015122841014","8.47207432778042","0100","","","Parent3120"
"de:08212:3121:0:1","Durlach Am Heegwald","49.017604284768","8.47897338916342","0100","","","Parent3121"
"de:08212:3121:0:2","Durlach Am Heegwald","49.0176808728464","8.47864101250824","0100","","","Parent3121"
"de:08212:313:1:1","Rintheim Forststraße","49.0139514857341","8.44198974891107","0100","","","Parent313"
"de:08212:313:2:2","Rintheim Forststraße","49.0142048336725","8.44228619295487","0100","","","Parent313"
"de:08212:314:1:1","Rintheim","49.0162904863047","8.44376841317387","0100","","","Parent314"
"de:08212:315:1:1","Karlsruhe Stadtwerke","49.0071164966641","8.34399253455283","0100","","","Parent315"
"de:08212:315:12:12","Karlsruhe Stadtwerke","49.0075113017382","8.34424406283241","0100","","","Parent315"
"de:08212:315:2:2","Karlsruhe Stadtwerke","49.0071047113899","8.34388473671872","0100","","","Parent315"
"de:08212:315:22:22","Karlsruhe Stadtwerke","49.0071754229933","8.34397456824714","0100","","","Parent315"
"de:08212:315:23:23","Karlsruhe Stadtwerke","49.0074700535933","8.34418118076252","0100","","","Parent315"
"de:08212:316:1:1","Karlsruhe Pfannkuchstraße","49.0112588477448","8.34783732396939","0100","","",""
"de:08212:32:1:1","KA-Grötzingen Paul-Rein-Straße","49.0012352982507","8.50395553721826","0100","","","Parent32"
"de:08212:32:1:2","KA-Grötzingen Paul-Rein-Straße","49.0012352982507","8.50395553721826","0100","","","Parent32"
"de:08212:3205:0:1","Hagsfeld Schäferstraße","49.0284845022983","8.46115979707685","0100","","","Parent3205"
"de:08212:3205:0:2","Hagsfeld Schäferstraße","49.0285787439259","8.46093521825578","0100","","","Parent3205"
"de:08212:3206:0:1","Hagsfeld Brückenstraße","49.0265466192601","8.46346846735736","0100","","","Parent3206"
"de:08212:3206:0:2","Hagsfeld Brückenstraße","49.027000173119","8.46399847337506","0100","","","Parent3206"
"de:08212:3206:0:4","Hagsfeld Brückenstraße","49.0273830400418","8.46429491741886","0100","","","Parent3206"
"de:08212:321:1:1","Karlsruhe Mühlburger Tor","49.0113531219946","8.38462333485921","0100","","","Parent321"
"de:08212:321:11:11","Karlsruhe Mühlburger Tor","49.0116064831561","8.38465028431774","0100","","","Parent321"
"de:08212:321:2:2","Karlsruhe Mühlburger Tor","49.0108876411514","8.38453350333078","0100","","","Parent321"
"de:08212:3211:0:1","KA-Grötzingen Pfinzhof","49.0322834764685","8.47167008590251","0100","","","Parent3211"
"de:08212:3211:0:2","KA-Grötzingen Pfinzhof","49.0322834764685","8.47161618698545","0100","","","Parent3211"
"de:08212:3212:0:1","KA-Grötzingen Ohmstraße","49.0273594790855","8.47281992946634","0100","","","Parent3212"
"de:08212:3212:0:2","KA-Grötzingen Ohmstraße","49.0272122228556","8.47262230010381","0100","","","Parent3212"
"de:08212:3213:0:1","KA-Grötzingen Greschbachstraße","49.029703739571","8.47309840720446","0100","","","Parent3213"
"de:08212:3213:0:2","KA-Grötzingen Greschbachstraße","49.0296919596437","8.47311637351014","0100","","","Parent3213"
"de:08212:3214:0:1","KA-Grötzingen Rossweid","49.0353342255456","8.47204737832189","0100","","",""
"de:08212:32586:1:1","Karlsruhe-Knielingen","49.026923599381","8.3408753805165","0100","","","Parent32586"
"de:08212:32586:2:2","Karlsruhe-Knielingen","49.0263934702702","8.34150420121547","0100","","","Parent32586"
"de:08212:32587:1:1","Karlsruhe-Mühlburg","49.0149000609259","8.35093651170004","0100","","","Parent32587"
"de:08212:32587:2:2","Karlsruhe-Mühlburg","49.0143521283927","8.35117905682678","0100","","","Parent32587"
"de:08212:33:1:1","KA-Grötzingen Fikentscherstr.","49.0017362289821","8.50709065756027","0100","","","Parent33"
"de:08212:33:1:2","KA-Grötzingen Fikentscherstr.","49.0017362289821","8.50709065756027","0100","","","Parent33"
"de:08212:3301:1:1","Hagsfeld Jenaer Straße","49.0357346960886","8.45612923148508","0100","","","Parent3301"
"de:08212:3301:2:2","Hagsfeld Jenaer Straße","49.0361410526088","8.4562819450834","0100","","","Parent3301"
"de:08212:3302:0:1","Hagsfeld Hallesche Allee","49.0348041860461","8.45400920741426","0100","","","Parent3302"
"de:08212:3302:0:2","Hagsfeld Hallesche Allee","49.0348984157032","8.45334445410392","0100","","","Parent3302"
"de:08212:34:1:1","KA-Grötzingen Am Schwalbenloch","49.0006400681255","8.50076651795919","0100","","",""
"de:08212:35:1:1","KA-Grötzingen Vogelsang","48.9997089017798","8.49963464070104","0100","","",""
"de:08212:36:11:11","Karlsruhe Kaiserplatz","49.0106107074457","8.38866575363831","0100","","","Parent36"
"de:08212:36:12:12","Karlsruhe Kaiserplatz","49.010015589377","8.38845015797009","0100","","","Parent36"
"de:08212:36:2:2","Karlsruhe Kaiserplatz","49.0103809102226","8.38950118685266","0100","","","Parent36"
"de:08212:40:1:1","Karlsruhe Schillerstraße","49.0097563277959","8.37965565133734","0100","","","Parent40"
"de:08212:40:2:2","Karlsruhe Schillerstraße","49.010428048201","8.37980836493566","0100","","","Parent40"
"de:08212:4002:11:11","Durlach Raiherwiesenstraße","48.99748699783","8.45860858166959","0100","","","Parent4002"
"de:08212:4002:12:12","Durlach Raiherwiesenstraße","48.9979702851078","8.45852773329401","0100","","","Parent4002"
"de:08212:4007:11:11","Durlach Wachhausstraße","48.9927953312932","8.4487899956128","0100","","","Parent4007"
"de:08212:4007:12:12","Durlach Wachhausstraße","48.9925418744156","8.44833185481783","0100","","","Parent4007"
"de:08212:4007:13:13","Durlach Wachhausstraße","48.9921646338845","8.4487899956128","0100","","","Parent4007"
"de:08212:4008:11:11","Durlach Killisfeld","48.993095941267","8.44499910511329","0100","","","Parent4008"
"de:08212:4008:11:12","Durlach Killisfeld","48.9930311039751","8.44488232412633","0100","","","Parent4008"
"de:08212:401:1:1","Karlsruhe Karl-Wilhelm-Platz","49.0112411713031","8.42295444803792","0100","","","Parent401"
"de:08212:401:1:11","Karlsruhe Karl-Wilhelm-Platz","49.0112529555983","8.42298139749645","0100","","","Parent401"
"de:08212:401:2:12","Karlsruhe Karl-Wilhelm-Platz","49.0113766905291","8.42338563937436","0100","","","Parent401"
"de:08212:401:2:2","Karlsruhe Karl-Wilhelm-Platz","49.0113884747922","8.42341258883289","0100","","","Parent401"
"de:08212:401:21:21","Karlsruhe Karl-Wilhelm-Platz","49.0117420013876","8.42317902685899","0100","","","Parent401"
"de:08212:402:1:1","Karlsruhe Hauptfriedhof","49.0136097585657","8.42921570556911","0100","","","Parent402"
"de:08212:402:11:11","Karlsruhe Hauptfriedhof","49.0132857047735","8.42824552506212","0100","","","Parent402"
"de:08212:402:12:12","Karlsruhe Hauptfriedhof","49.0132621371426","8.42831739028486","0100","","","Parent402"
"de:08212:402:2:2","Karlsruhe Hauptfriedhof","49.0138395408856","8.43015893661756","0100","","","Parent402"
"de:08212:402:3:3","Karlsruhe Hauptfriedhof","49.0130559198971","8.43112911712455","0100","","","Parent402"
"de:08212:402:4:4","Karlsruhe Hauptfriedhof","49.0136510016242","8.43083267308075","0100","","","Parent402"
"de:08212:403:1:1","Karlsruhe Hirtenweg/Techn.park","49.0170917307483","8.43866598235936","0100","","","Parent403"
"de:08212:403:2:2","Karlsruhe Hirtenweg/Techn.park","49.0173038227069","8.43910615684864","0100","","","Parent403"
"de:08212:403:23:23","Karlsruhe Hirtenweg/Techn.park","49.0172331254878","8.43847733614967","0100","","","Parent403"
"de:08212:404:1:1","Rintheim Sinsheimer Straße","49.0207266262782","8.44465774530527","0100","","","Parent404"
"de:08212:404:2:2","Rintheim Sinsheimer Straße","49.0209858307302","8.44503503772466","0100","","","Parent404"
"de:08212:405:1:1","Hagsfeld Fächerbad","49.025309633178","8.44805337707972","0100","","","Parent405"
"de:08212:405:11:11","Hagsfeld Fächerbad","49.0258397738356","8.44790964663424","0100","","","Parent405"
"de:08212:405:12:12","Hagsfeld Fächerbad","49.0260871708763","8.4476042194376","0100","","","Parent405"
"de:08212:405:13:13","Hagsfeld Fächerbad","49.0252625092907","8.44827795590078","0100","","","Parent405"
"de:08212:405:14:14","Hagsfeld Fächerbad","49.0251329183704","8.44852050102752","0100","","","Parent405"
"de:08212:405:2:2","Hagsfeld Fächerbad","49.0256100469108","8.44817914121951","0100","","","Parent405"
"de:08212:406:1:1","Waldstadt Im Eichbäumle","49.029574160217","8.44782879825866","0100","","","Parent406"
"de:08212:406:2:2","Waldstadt Im Eichbäumle","49.0295682702383","8.44790964663424","0100","","","Parent406"
"de:08212:407:1:1","Waldstadt Glogauer Straße","49.031712176404","8.44178313639569","0100","","","Parent407"
"de:08212:407:11:11","Waldstadt Glogauer Straße","49.0316650585801","8.44190890053548","0100","","","Parent407"
"de:08212:407:12:12","Waldstadt Glogauer Straße","49.0319889927184","8.44226822664918","0100","","","Parent407"
"de:08212:407:2:2","Waldstadt Glogauer Straße","49.0319654339431","8.44207059728665","0100","","","Parent407"
"de:08212:408:1:1","Waldstadt Zentrum","49.0350103131892","8.44507995348887","0100","","","Parent408"
"de:08212:408:11:11","Waldstadt Zentrum","49.0350456491851","8.44525961654572","0100","","","Parent408"
"de:08212:408:12:12","Waldstadt Zentrum","49.0346098368146","8.44505300403034","0100","","","Parent408"
"de:08212:408:13:13","Waldstadt Zentrum","49.0347452924198","8.44510690294739","0100","","","Parent408"
"de:08212:408:2:2","Waldstadt Zentrum","49.0352517753277","8.44537639753267","0100","","","Parent408"
"de:08212:409:1:1","Waldstadt Jägerhaus","49.0368183060989","8.44691251666873","0100","","","Parent409"
"de:08212:409:2:2","Waldstadt Jägerhaus","49.0374013256308","8.4475413373677","0100","","","Parent409"
"de:08212:409:3:3","Waldstadt Jägerhaus","49.0370479812757","8.44791862978708","0100","","","Parent409"
"de:08212:41:1:1","Karlsruhe Yorckstraße","49.0109642395639","8.37520000752748","0100","","","Parent41"
"de:08212:41:2:2","Karlsruhe Yorckstraße","49.0108935333411","8.37617917118731","0100","","","Parent41"
"de:08212:41:3:3","Karlsruhe Yorckstraße","49.01101137699","8.37520899068033","0100","","","Parent41"
"de:08212:411:1:1","Waldstadt Osteroder Straße","49.0431958149246","8.44765811835465","0100","","","Parent411"
"de:08212:411:2:2","Waldstadt Osteroder Straße","49.0435137856504","8.4466520052363","0100","","","Parent411"
"de:08212:4202:0:11","Durlach Tiefbauamt","48.9967266949386","8.43236879221681","0100","","","Parent4202"
"de:08212:4202:0:12","Durlach Tiefbauamt","48.9965439847623","8.43313236020841","0100","","","Parent4202"
"de:08212:4203:0:11","Durlach Maybachstraße","48.9971039009244","8.4390971736958","0100","","","Parent4203"
"de:08212:4203:0:12","Durlach Maybachstraße","48.9969152982885","8.43833360570419","0100","","","Parent4203"
"de:08212:4204:11:11","Durlach Dieselstraße","48.9962610773608","8.44503503772466","0100","","","Parent4204"
"de:08212:4204:12:12","Durlach Dieselstraße","48.9962080320441","8.44497215565476","0100","","","Parent4204"
"de:08212:4205:11:11","Durlach Ottostraße","48.9952591007246","8.45034408105454","0100","","","Parent4205"
"de:08212:4205:12:12","Durlach Ottostraße","48.9949702919523","8.45010153592779","0100","","","Parent4205"
"de:08212:4205:13:13","Durlach Ottostraße","48.995618635836","8.45016441799769","0100","","","Parent4205"
"de:08212:4205:14:14","Durlach Ottostraße","48.995701151725","8.45022730006759","0100","","","Parent4205"
"de:08212:4206:11:11","Durlach Gudrunstraße","48.9965911358397","8.45525786565936","0100","","","Parent4206"
"de:08212:4206:11:12","Durlach Gudrunstraße","48.996508621425","8.45530278142357","0100","","","Parent4206"
"de:08212:430:3:3","Karlsruhe Hirtenweg (Schleife)","49.0176867642322","8.43934870197539","0100","","",""
"de:08212:4302:11:11","Durlach Schlesier Straße Ost","48.9862816697758","8.45969554316353","0100","","","Parent4302"
"de:08212:4302:11:12","Durlach Schlesier Straße Ost","48.9857570029696","8.45908468877024","0100","","","Parent4302"
"de:08212:4304:11:11","Durlach Blattwiesenstraße","48.9928778518588","8.46493272127067","0100","","","Parent4304"
"de:08212:4304:11:12","Durlach Blattwiesenstraße","48.9931077298565","8.46524713162016","0100","","","Parent4304"
"de:08212:4305:11:11","Durlach Brühlstraße Mitte","48.9885158632015","8.46130352752233","0100","","","Parent4305"
"de:08212:4305:11:12","Durlach Brühlstraße Mitte","48.9881150126525","8.46112386446548","0100","","","Parent4305"
"de:08212:4307:0:11","Hohenwettersbach Medersbuckel","48.9702326194543","8.47659285366017","0100","","","Parent4307"
"de:08212:4307:0:12","Hohenwettersbach Medersbuckel","48.9709638420969","8.47604488133678","0100","","","Parent4307"
"de:08212:4308:11:11","Durlach Tiefentalstraße","48.9735112436706","8.47300857567603","0100","","","Parent4308"
"de:08212:4308:11:13","Durlach Tiefentalstraße","48.9731928255921","8.47330501971983","0100","","","Parent4308"
"de:08212:4308:12:12","Durlach Tiefentalstraße","48.9732458954131","8.47361943006932","0100","","","Parent4308"
"de:08212:4308:12:14","Durlach Tiefentalstraße","48.973228205479","8.47355654799942","0100","","","Parent4308"
"de:08212:4309:0:11","Hohenwettersbach Mitte","48.968345543732","8.47844338314571","0100","","","Parent4309"
"de:08212:4309:0:12","Hohenwettersbach Mitte","48.9681922156923","8.47843439999287","0100","","","Parent4309"
"de:08212:4310:0:11","Hohenwettersbach Rathaus","48.9660337786388","8.47730252273472","0100","","","Parent4310"
"de:08212:4310:0:12","Hohenwettersbach Rathaus","48.9659865986434","8.47740133741599","0100","","","Parent4310"
"de:08212:4312:0:11","Hohenwettersbach Taglöhnergärten","48.9658627509431","8.47246958650548","0100","","","Parent4312"
"de:08212:4312:0:12","Hohenwettersbach Taglöhnergärten","48.9662224981741","8.47228992344864","0100","","","Parent4312"
"de:08212:44:1:1","Karlsruhe Händelstraße","49.0112470634511","8.36904654783041","0100","","","Parent44"
"de:08212:44:2:2","Karlsruhe Händelstraße","49.0111999262481","8.36955858754243","0100","","","Parent44"
"de:08212:4407:0:1","Durlach Dürrenwettersb. Straße","48.9720134816601","8.47354756484658","0100","","",""
"de:08212:4409:0:11","Bergwald Mitte","48.9717068476681","8.4682834372809","0100","","","Parent4409"
"de:08212:4409:0:12","Bergwald Mitte","48.9717540222512","8.46838225196217","0100","","","Parent4409"
"de:08212:4412:0:1","Bergwald Fridtjof-Nansen-Str.","48.9719957912888","8.46974769119422","0100","","",""
"de:08212:4413:0:1","Bergwald Hooverstraße","48.9741067979507","8.46410627120917","0100","","",""
"de:08212:4414:0:1","Bergwald Elsa-Brändström-Str.","48.9723437007733","8.46187844930424","0100","","",""
"de:08212:4415:0:1","Bergwald Bergwaldschule","48.9712350993824","8.46787021225015","0100","","",""
"de:08212:4492:1:1","Durlach Zündhütle","48.982803438436","8.46010876819428","0100","","","Parent4492"
"de:08212:4492:11:11","Durlach Zündhütle","48.9830569448543","8.46033334701534","0100","","","Parent4492"
"de:08212:4492:12:12","Durlach Zündhütle","48.9825853039742","8.46098013402","0100","","","Parent4492"
"de:08212:4492:12:13","Durlach Zündhütle","48.9826796325073","8.46075555519894","0100","","","Parent4492"
"de:08212:4492:14:14","Durlach Zündhütle","48.9833222408878","8.4603872459324","0100","","","Parent4492"
"de:08212:4492:2:2","Durlach Zündhütle","48.9824202286117","8.46094420140863","0100","","","Parent4492"
"de:08212:4493:1:1","Durlach Schlesier Straße West","48.9887575509447","8.45221257684577","0100","","","Parent4493"
"de:08212:4493:2:2","Durlach Schlesier Straße West","48.9884156508665","8.45219461054008","0100","","","Parent4493"
"de:08212:4494:1:1","Durlach Ostmarkstraße","48.9922648386792","8.45360496553635","0100","","","Parent4494"
"de:08212:4494:2:2","Durlach Ostmarkstraße","48.9911684693763","8.45250003773673","0100","","","Parent4494"
"de:08212:4495:1:1","Durlach Ellmendinger Straße","48.9942747864051","8.45896790778329","0100","","","Parent4495"
"de:08212:4495:2:2","Durlach Ellmendinger Straße","48.9940861730576","8.45841095230706","0100","","","Parent4495"
"de:08212:4496:1:1","Durlach Steiermärker Straße","48.985916172135","8.45579685482991","0100","","","Parent4496"
"de:08212:4496:2:2","Durlach Steiermärker Straße","48.9857098416378","8.4562190630135","0100","","","Parent4496"
"de:08212:4497:1:1","Durlach Killisfeldstraße","48.9971687329155","8.46184251669287","0100","","","Parent4497"
"de:08212:4497:2:2","Durlach Killisfeldstraße","48.9975636168575","8.46215692704236","0100","","","Parent4497"
"de:08212:4499:1:1","Durlach Gritznerstraße","48.9994613736197","8.46416017012622","0100","","","Parent4499"
"de:08212:4499:2:2","Durlach Gritznerstraße","48.9991784827876","8.46384575977674","0100","","","Parent4499"
"de:08212:45:1:1","Karlsruhe Philippstraße","49.0114473960657","8.36416869583696","0100","","","Parent45"
"de:08212:45:2:2","Karlsruhe Philippstraße","49.0113884747922","8.36487836491151","0100","","","Parent45"
"de:08212:4500:1:1","Wolfartsweier Nord","48.9791657741066","8.45881519418497","0100","","","Parent4500"
"de:08212:4500:11:11","Wolfartsweier Nord","48.9782342063433","8.45827620501442","0100","","","Parent4500"
"de:08212:4500:11:12","Wolfartsweier Nord","48.9781398693964","8.45809654195757","0100","","","Parent4500"
"de:08212:4503:0:1","Durlach Parkschlössle","48.9954241335569","8.47520046496959","0100","","","Parent4503"
"de:08212:4503:0:2","Durlach Parkschlössle","48.9955184377871","8.47538012802644","0100","","","Parent4503"
"de:08212:4504:1:1","Durlach Rommelstraße","48.9922235779057","8.47306247459309","0100","","","Parent4504"
"de:08212:4504:1:2","Durlach Rommelstraße","48.9922707330726","8.47321518819141","0100","","","Parent4504"
"de:08212:4504:2:3","Durlach Rommelstraße","48.9920821121375","8.47219110876737","0100","","","Parent4504"
"de:08212:4505:1:1","Durlach Max-Liebermann-Straße","48.9880737484423","8.47015193307213","0100","","","Parent4505"
"de:08212:4505:1:2","Durlach Max-Liebermann-Straße","48.9885807063696","8.47076278746542","0100","","","Parent4505"
"de:08212:4508:0:1","Wolfartsweier Mitte","48.9755455333905","8.4552668488122","0100","","","Parent4508"
"de:08212:4508:0:2","Wolfartsweier Mitte","48.9756162897999","8.45540159610484","0100","","","Parent4508"
"de:08212:4509:0:1","Grünwettersbach Rathaus","48.9584962083417","8.46678325075622","0100","","","Parent4509"
